,sample_number,sample_name,aspect_ratio,circularity,type_ianetta,type_shull,length,width,preimeter,area,state,climate_region,id,id2,city_county_state,latitude,longitude,elevation,month,day,year,precp_in,max_temp_C,min_temp_C,avg_temp_C,avg_tmax_six_months_prior,avg_tmin_six_months_prior,avgtemp_6monthsprior,avg_tmax_previous_.year,avg_tmin_previous_.year,tavg_previous_.year,avg_tmax_.year_DOC,avg_tmin_.year_DOC,tavg_.year_DOC,avgprecp_6monthsprior,avg_precp_previous_year,avg_precp_year_DOC
1,199,CBP_14_BRIT_Tex,1.937826881,0.761057573,Type3,rhomboidea,2.79,0.51,7.06,6.88,TX,South,FortWorth,FortWorth12,"Fort Worth, Texas",32.73,-97.32,198,March ,11,1979,0,20.12,3.32,11.72,4.16,29.51,16.96,24.72,12.06,18.39,24.67,12.2,18.43,0.0416,0.0324,0.0375
2,200,CBP_14_BRIT_Tex,1.937826881,0.761057573,Type3,heteris,2.79,0.51,7.06,6.88,TX,South,FortWorth,FortWorth12,"Fort Worth, Texas",32.73,-97.32,198,March ,11,1979,0,20.12,3.32,11.72,4.16,29.51,16.96,24.72,12.06,18.39,24.67,12.2,18.43,0.0416,0.0324,0.0375
3,332,CBP_3_HAR_WAS,2.834468365,0.660620281,Type3,rhomboidea,2.74,0.89,5.84,5.84,WA,Northwest,,,Washington,#N/A,#N/A,#N/A,,#N/A,#N/A,#N/A,#N/A,#N/A,#N/A,#N/A,#N/A,#N/A,#N/A,#N/A,#N/A,#N/A,#N/A,#N/A,#N/A,#N/A,#N/A
4,431,CBP_5_FLAS_FLOR,2.745987872,0.605709733,Type3,rhomboidea,2.44,0.8,5.57,5.56,FL,Southeast,homestead,homestead4,"Homestead, Dade County, Florida",25.57,-80.67,1,November,2,1997,0.003,31.05,23.1,27.17,31.99,23.36,27.68,29.77,20.17,24.97,29.64,20.33,24.98,0.0707,0.0433,0.0487
5,337,CBP_3_MICH_MICH,2.929709414,0.600620954,Type1a1,rhomboidea,5.3,1.75,11.45,11.46,MI,Upper_Midwest,,,"Grayling, Crawford County, Michigan",44.66,-84.71,346,,#N/A,1887,#N/A,#N/A,#N/A,#N/A,#N/A,#N/A,#N/A,#N/A,#N/A,#N/A,#N/A,#N/A,#N/A,#N/A,#N/A,#N/A
6,202,CBP_14_BRIT_Tex,2.585333151,0.596447972,Type3,heteris,2.79,0.51,7.06,6.88,TX,South,FortWorth,FortWorth12,"Fort Worth, Texas",32.73,-97.32,198,March ,11,1979,0,20.12,3.32,11.72,4.16,29.51,16.96,24.72,12.06,18.39,24.67,12.2,18.43,0.0416,0.0324,0.0375
7,445,CBP_5_SAT_Tex,2.457958085,0.595741174,Type1a1,heteris,6.72,2.3,22.38,22.95,TX,South,Waco,Waco4,"Waco, Texas",31.55,-97.15,142,March ,21,1990,0,20.86,5.66,13.26,19.88,6.23,13.06,25.33,12.58,18.96,25.96,13.31,19.63,0.0206,0.0267,0.0276
8,251,CBP_2_EUH_GEOR,2.655326482,0.594996464,Type3,rhomboidea,4.59,1.65,11.04,10.96,GA,Southeast,milledgeville,milledgeville,"Milledgeville, Baldwin County, Georgia",33.08,-83.23,101,April,3,1937,0,26.4,7.5,16.95,17.25,6.34,11.8,24.85,13.13,18.99,23.77,12.17,17.97,0.0342,0.0305,0.0314
9,117,CBP_1_SAT_Tex,3.426300213,0.592867949,Type6,heteris,4.3,1.25,10.01,9.8,TX,South,Waco,Waco1,"Waco, Texas",31.55,-97.15,142,February,15,1982,0,20.46,8.76,14.61,20.98,7.95,14.46,25.25,12.71,18.98,25.49,12.89,19.19,0.0211,0.0246,0.0197
10,471,CBP_6_SAT_Tex,3.187555726,0.589037497,Type1a2,heteris,6.18,1.26,11.87,11.86,TX,South,Houston,Houston2,"Houston, Texas",29.76,-95.36,11,April,4,1990,0,24.26,12.7,18.48,19.92,9.58,14.75,25.72,15.56,20.64,26.65,16.1,21.37,0.0289,0.0377,0.0277
11,162,CBP_10_MICH_MICH,2.699970571,0.578597198,Type3,rhomboidea,3.2,1.1,7.37,7.37,MI,Upper_Midwest,Big Rapids,Big Rapids1,"Big Rapids, Mecosta County, Michigan",43.71,-85.36,969,May,4,1998,0,23.33,7.8,15.57,6.28,-3.47,1.4,14.59,3.34,8.97,15.76,3.61,9.68,0.0213,0.0301,0.0209
12,384,CBP_4_FLAS_FLOR,2.709050015,0.557579994,Type3,rhomboidea,4.96,1.81,12.15,12.06,FL,Southeast,gainesville,gainesville3,"Gainesville, Alachua, Florida",29.61,-82.41,54,March,13,2002,1.06,27.56,10.78,19.17,23.39,9.64,16.52,27.31,13.95,20.63,27.34,14.29,20.81,0.0178,0.0358,0.0422
13,114,CBP_1_ODU_VIR,2.774910124,0.544057116,Type3,rhomboidea,1.28,0.45,2.89,2.87,VI,Southeast,norfolk,norfolk3,"Norfolk City, Norfolk County, Virginia",36.89,-76.31,301,March,9,1969,1.072,8.14,0.76,4.45,12.62,4.05,8.34,19.94,10.65,15.3,18.89,9.92,14.41,0.0297,0.0285,0.0334
14,107,CBP_1_NY_IDA,2.999219835,0.542186753,Type3,rhomboidea,2.72,0.84,5.96,5.96,ID,Northwest,boise,boise,Ada County_Idaho_Boise,43.61,-116.2,832,May,6,1911,#N/A,#N/A,#N/A,#N/A,9.8,-2.33,3.73,17.74,2.36,10.05,16.98,1.72,9.35,0.0156,0.0141,0.0142
15,444,CBP_5_PH_DELA,2.927767928,0.539516572,Type3,rhomboidea,2.6,0.8,5.82,5.8,DE,Northeast,seaford,seaford,"Seaford, Sussex County, Delaware",38.56,-75.56,301,April,14,1927,0,15.01,3,9.01,2.68,2.68,2.68,18.84,7.25,13.05,19.18,7.56,13.37,0.0268,0.0324,0.0295
16,201,CBP_14_BRIT_Tex,3.68688278,0.534972007,Type3,heteris,2.79,0.51,7.06,6.88,TX,South,FortWorth,FortWorth12,"Fort Worth, Texas",32.73,-97.32,198,March ,11,1979,0,20.12,3.32,11.72,4.16,29.51,16.96,24.72,12.06,18.39,24.67,12.2,18.43,0.0416,0.0324,0.0375
17,220,CBP_17_BRIT_Tex,3.015089249,0.533229065,Type3,heteris,11.9,3.36,39.61,38.85,TX,South,Arlington,Arlington2,"Arlington, Texas",32.74,-97.11,183,March,7,1974,0,28.76,18.1,23.43,19.34,6.47,12.91,24.55,12.55,18.55,24.6,12.43,18.52,0.0197,0.0289,0.0269
18,127,CBP_1_UCHT_GEOR,2.469602811,0.511433735,Type3,rhomboidea,3.63,1.44,8.83,8.78,GA,Southeast,dalton,dalton,"Dalton, Whitfield County, Georgia",33.01,-83.53,232,May,5,1968,0.243,26.57,11.4,18.98,17.77,3.67,10.72,23.08,9.41,16.24,23.59,9.95,16.77,0.0232,0.0271,0.0262
19,374,CBP_4_BRIT_Tex,3.482290231,0.501623267,Type3,heteris,2.07,0.82,6.42,6,TX,South,Fredericksburg,Fredericksburg2,"Fredericksburg, Texas",30.28,-98.87,514,Janurary,3,1993,0.178,12.53,4.6,8.56,25.25,11.71,18.48,24.64,12.09,18.36,24.58,11.53,18.06,0.0178,0.0283,0.0184
20,138,CBP_1_URV_VIR,3.155007018,0.501060227,Type3,rhomboidea,4.91,1.56,11.05,11,VI,Southeast,richmond,richmond3,"RIchmond, Nottoway County, Virginia",37.54,-77.43,50.7,May,3,1942,0.152,31.98,16.55,24.26,15.66,3.65,9.66,22.63,10.22,16.43,22.27,9.59,15.93,0.0263,0.0324,0.0269
21,351,CBP_3_USF_FLOR,3.349478524,0.499219503,Type1a2,rhomboidea,2.93,0.8,6.27,6.29,FL,Southeast,homestead,homestead2,"Homestead, Dade County, Florida",25.57,-80.67,1,November,2,1997,0.003,31.05,23.1,27.17,31.99,23.36,27.68,29.77,20.17,24.97,29.64,20.33,24.98,0.0707,0.0433,0.0487
22,213,CBP_16_BRIT_Tex,3.10113111,0.495070087,Type3,heteris,1.98,0.5,3.88,3.86,TX,South,FortWorth,FortWorth11,"Fort Worth, Texas",32.73,-97.32,198,February ,25,1974,0,9.8,-6.68,1.56,2.32,20.65,7.33,24.27,11.45,17.86,24.5,11.59,18.04,0.0232,0.0283,0.0261
23,212,CBP_16_BRIT_Tex,3.034281234,0.487643598,Type3,heteris,1.9,0.87,6.33,6.09,TX,South,FortWorth,FortWorth11,"Fort Worth, Texas",32.73,-97.32,198,February ,25,1974,0,9.8,-6.68,1.56,2.32,20.65,7.33,24.27,11.45,17.86,24.5,11.59,18.04,0.0232,0.0283,0.0261
24,137,CBP_1_Uofl_INDI,3.405866922,0.48440157,Type3,rhomboidea,3.76,0.92,8.4,8.38,IN,Ohio_Valley,,,Indiana,#N/A,#N/A,#N/A,,#N/A,#N/A,#N/A,#N/A,#N/A,#N/A,#N/A,#N/A,#N/A,#N/A,#N/A,#N/A,#N/A,#N/A,#N/A,#N/A,#N/A,#N/A
25,354,CBP_3_VPI_VIR,2.447091396,0.475574888,Type3,rhomboidea,3.83,1.37,9.44,9.34,VI,Southeast,alexandria,alexandria1,"Alexandria, Arlington County, Virginia",38.82,-77.05,54,April,24,1939,0,29.53,7.73,18.63,12.32,0.47,6.4,19.35,7.49,13.42,19.75,8.01,13.88,0.0303,0.0318,0.0295
26,405,CBP_4_VCU_VIR,2.530979218,0.46689604,Type3,rhomboidea,3.86,1.48,9.6,9.48,VI,Southeast,richmond,richmond13,"Richmond City, , Virginia",37.54,-77.43,50.7,April,29,1971,0,21.24,8.05,14.65,9.02,-1.35,3.84,20.03,8.06,14.05,19.69,7.73,13.71,0.0395,0.0334,0.0327
27,428,CBP_5_DOV_DELA,3.67604576,0.462852064,Type3,rhomboidea,3.39,0.73,7.48,7.45,DE,Northeast,dover,dover2,"Dover, Kent County, Delaware",39.22,-75.63,301,July,17,1984,0,31.13,19.98,25.55,4.07,4.07,4.07,18.95,7.15,13.05,18.09,6.65,12.37,0.0407,0.036,0.0299
28,2,CBP_1_ADSM_ARIZ,3.244615827,0.458480373,Type3,rhomboidea,3.46,1.09,7.66,7.64,AZ,Southwest,tucson,tucson3,Pima County_Arizona_Tuscon,32,-110.95,728,March,5,1993,0,17.72,3.63,10.68,19.99,5,12.5,26.37,10.48,18.42,26.7,10.66,18.68,0.2012,0.1747,0.1508
29,387,CBP_4_HAR_WAS,2.703716177,0.456707905,Type3,rhomboidea,3.24,0.76,7.94,7.71,WA,Northwest,almotacreek,almotacreek,Whitman County_Washington_Almota Creek,46.64,-117.29,#N/A,April,20,1975,0.054,12,0.43,6.21,6.64,-1.68,2.48,15.72,2.95,9.33,15.28,3.19,9.24,0.0199,0.0123,0.0163
30,310,CBP_29_WIS_WIS,3.932713979,0.449720494,Type3,rhomboidea,7.3,1.8,15.55,15.55,WI,Upper_Midwest,wisconsinrapids,wisconsinrapids,"Wisconsin Rapids, Wood County, Wisconsin",43.78,-88.85,301,June,3,1891,#N/A,#N/A,#N/A,#N/A,#N/A,#N/A,#N/A,#N/A,#N/A,#N/A,#N/A,#N/A,#N/A,#N/A,#N/A,#N/A
31,341,CBP_3_NY_UTAH,2.612420807,0.446496206,Type3,rhomboidea,4.06,1.43,10.69,10.64,UT,Southwest,moab,moab,"Moab, Grand County, Utah",38.54,-109.13,2541.44,September,14,1986,0.108,11.63,0.69,6.16,29.18,11.03,20.1,20.83,4.48,12.66,20.72,4.39,12.55,0.011,0.012,0.0112
32,170,CBP_11_BRIT_Tex,3.198310527,0.446238962,Type3,heteris,3.03,0.62,8,7.57,TX,South,FortWorth,FortWorth1,"Fort Worth, Texas",32.73,-97.32,198,April,1,1926,0.104,-5.92,-14.53,-10.23,1.64,15.14,2.85,24.07,12.02,18.04,20.35,8.67,14.51,0.0164,0.0212,0.0257
33,9,CBP_1_ASU_ARIZ,3.693258,0.445858536,Type3,rhomboidea,5.05,1.3,11,10.97,AZ,Southwest,crownking,crownking,Yavapai County_Arizona_Crown King,34.23,-112.32,1415,December,31,2002,0,12.83,-0.59,6.12,25.95,11.43,18.69,24.42,8.95,16.69,24.46,8.97,16.71,0.0827,0.046,0.0459
34,102,CBP_1_NKU-KNK_OHIO,3.415234437,0.444911373,Type3,rhomboidea,4,1.02,8.84,8.77,OH,Ohio_Valley,lebanon,lebanon,"Lebanon, Warren County, Ohio",39.45,-84.1,301,April,27,1992,0.249,9.63,4.77,7.2,9.43,-0.64,4.39,18.37,7.05,12.71,16.84,5.95,11.4,0.0222,0.0234,0.0263
35,81,CBP_1_LSU_UTAH,3.517877618,0.444663723,Type3,rhomboidea,4.43,1.19,9.49,9.51,UT,Southwest,herriman,herriman,"Herriman, Salt Lake County, Utah",40.54,-112.05,1532.16,May,6,1995,0,15.43,0.98,8.2,8.57,-2.58,2.99,17.05,3.62,10.34,16.4,3.14,9.77,0.0305,0.0225,0.0238
36,14,CBP_1_BRIT_Tex,4.003755596,0.442269451,Type3,rhomboidea,3.03,0.93,5.51,5.51,TX,South,Houston,Houston1,"Houston, Texas",29.76,-95.36,11,November,14,1961,3.491,19.82,12.77,16.29,29.92,19.98,24.95,25.26,15.18,20.22,25.4,15.07,20.23,0.0547,0.042,0.0378
37,185,CBP_12_SAT_Tex1,2.711511489,0.441806705,Type3,rhomboidea,7.02,1.77,18.24,17.81,TX,South,Coleman,Coleman1,"Coleman, Texas",31.83,-99.43,518,February ,18,1994,0,20.93,7.23,14.08,20.36,5.55,12.95,24.89,10.19,17.54,25.15,10.89,18.02,0.0165,0.0154,0.0223
38,358,CBP_3_WM_VIR,3.976210656,0.439487253,Type3,rhomboidea,3.31,0.74,6.88,6.9,VI,Southeast,suffolkcity,suffolkcity2,"Suffolk City, , Virginia",36.73,-76.58,31,March,9,2009,0,27.53,10.38,18.95,14.4,3.09,8.74,21.34,9.94,15.64,21.04,10.35,15.7,0.0245,0.031,0.0458
39,76,CBP_1_LFC_VIR,2.497569181,0.433970836,Type1a2,rhomboidea,4.19,1.53,11.3,11.19,VI,Southeast,winchester,winchester2,"Winchester, Warren County, Virginia",39,-78.15,301,August,17,1980,0,24.04,12.85,18.44,22.14,9.55,15.85,17.25,5.65,11.45,17.1,5,11.05,0.034,0.0355,0.0248
40,470,CBP_6_SAT_Tex,4.88402087,0.431433822,Type1a2,heteris,4.33,1.13,8.85,8.81,TX,South,Houston,Houston2,"Houston, Texas",29.76,-95.36,11,April,4,1990,0,24.26,12.7,18.48,19.92,9.58,14.75,25.72,15.56,20.64,26.65,16.1,21.37,0.0289,0.0377,0.0277
41,305,CBP_24_WIS_WIS,3.534557986,0.430303208,Type3,rhomboidea,4.4,1.05,9.45,9.4,WI,Upper_Midwest,madison,madison4,"Madison, Dane County, Wisconsin",43.07,-89.4,266,June,14,1881,0,16.6,8.08,12.34,6.94,-2.61,2.17,6.94,-2.61,2.17,6.94,-2.61,2.17,0.031,0.031,0.031
42,286,CBP_2_SAT_Tex,3.200306314,0.427221732,Type3,heteris,3.79,1.71,15.04,14.61,TX,South,Sonora,Sonora1,"Sonora, Texas",30.57,-100.64,649,March ,15,1992,0,#N/A,#N/A,#N/A,19.61,4.67,12.14,26.06,9.35,17.7,26.45,10.32,18.39,0.0159,0.0175,0.0161
43,474,CBP_6_USF_FLOR,3.670028659,0.426746728,Type3,rhomboidea,5.34,1.24,12.69,12.58,FL,Southeast,marianna,marianna2,"Marianna, Jackson, Florida",30.77,-85.23,51,February,9,1957,0.041,28.23,14.63,21.43,24.87,11.59,18.23,27.07,14.17,20.62,26.52,14.52,20.52,0.0257,0.0342,0.0406
44,130,CBP_1_UGA_GEOR,3.667831928,0.42564472,Type3,rhomboidea,6.72,1.49,15.28,15.23,GA,Southeast,darien,darien2,"Darien, McIntosh County, Georgia",31.38,-81.44,9.1,December,29,1959,0.029,18.97,6.5,12.74,26.67,16.81,21.74,25.11,14.65,19.88,25.12,14.65,19.88,0.043,0.0436,0.0437
45,247,CBP_2_DOV_MARY,4.292408586,0.418535566,Type3,rhomboidea,4.04,0.91,8.63,8.61,MD,Northeast,preston,preston1,Caroline County_Maryland_Preston,38.71,-75.91,12,December,12,2004,2.559,12.791,8.5,6.82,23.47,13.45,18.46,19.16,9,14.08,20.4,8.16,14.28,0.0367,0.032,0.0329
46,497,CBP_7_USF_FLOR,2.933697698,0.417317731,Type3,rhomboidea,4.04,1.12,10.82,10.75,FL,Southeast,highsprings,highsprings,"High Springs, Alachua County, Florida",29.82,-82.6,21,March,2,2013,0,14.43,1.4,7.92,22.55,9.23,15.89,27.12,14.36,20.74,26.66,14.23,20.45,0.0227,0.0483,0.0408
47,235,CBP_2_ASDM_ARIZ,3.896000622,0.416362671,Type3,rhomboidea,2.52,0.62,4.76,4.79,AZ,Southwest,,,Pima County_Arizona_Tuscon,32.22,-111.13,728,,#N/A,1993,#N/A,#N/A,#N/A,#N/A,#N/A,#N/A,#N/A,#N/A,#N/A,#N/A,#N/A,#N/A,#N/A,#N/A,#N/A,#N/A
48,150,CBP_1_WIS_WIS,3.921910451,0.415730688,Type3,rhomboidea,3.5,0.75,7.45,7.45,WI,Upper_Midwest,viroqua,viroqua,"Viroqua, Vernon County, Wisconsin",43.46,-91.2,969,May,30,1956,0.435,26.99,18.71,22.85,4.78,-6.6,-0.91,4.78,-6.6,-0.91,4.78,-6.6,-0.91,0.0187,0.0187,0.0187
49,85,CBP_1_MOR_ILL,3.016123921,0.414416183,Type3,rhomboidea,6.25,1.75,15.55,15.2,IL,Ohio_Valley,momence,momence,"Momence, Kankakee County, Illinois",41.16,-87.6,189,September,15,1975,0.037,19.53,8.62,14.08,24.66,12.31,18.49,15.27,4.85,10.06,15.62,4.98,10.3,0.0386,0.0288,0.0288
50,186,CBP_12_SAT_Tex2,3.67611597,0.414373812,Type3,rhomboidea,7.69,2.34,22.47,21.94,TX,South,Coleman,Coleman1,"Coleman, Texas",31.83,-99.43,518,February ,18,1994,0,20.93,7.23,14.08,20.36,5.55,12.95,24.89,10.19,17.54,25.15,10.89,18.02,0.0165,0.0154,0.0223
51,208,CBP_15_MICH_MICH,2.478581788,0.413710747,Type3,rhomboidea,3.1,1.23,8.71,4.37,MI,Upper_Midwest,,,,#N/A,#N/A,#N/A,,#N/A,#N/A,#N/A,#N/A,#N/A,#N/A,#N/A,#N/A,#N/A,#N/A,#N/A,#N/A,#N/A,#N/A,#N/A,#N/A,#N/A,#N/A
52,493,CBP_7_SAT_Tex,3.635334238,0.413400022,Type1a1,heteris,3.29,1.11,10.05,9.7,TX,South,Hondo,Hondo1,"Hondo, Texas",29.35,-99.14,271,March ,26,1970,0,28.35,3.35,15.85,21,7.32,14.16,27.47,13.29,20.38,27.21,12.76,19.99,0.0226,0.0223,0.0159
53,140,CBP_1_USF_FLOR,3.820315359,0.412721427,Type3,rhomboidea,4.23,0.98,9.19,9.19,FL,Southeast,plantcity,plantcity,"Plant City, Hillsborough County, Florida",28.02,-82.11,40,April,4,1989,0.198,30.98,17.5,24.24,25.79,13.35,19.57,29,16.92,22.96,29.18,17.05,23.11,0.0227,0.0339,0.0326
54,128,CBP_1_UCHT_WAS,4.328676686,0.411263799,Type3,rhomboidea,5.53,1.28,11.37,11.37,WA,Northwest,anacortes,anacortes,Skagit County_Washignton_Anacortes,48.42,-122.66,50,June,11,1965,0.895,17.82,9.95,13.89,11.98,3.08,7.53,13.89,4.87,9.38,14.66,5.42,10.04,0.026,0.0234,0.0214
55,380,CBP_4_DOV_DELA,3.631155113,0.408143401,Type3,rhomboidea,4.04,0.96,9.37,9.26,DE,Northeast,dover,dover1,"Dover, Kent County, Delaware",39.22,-75.63,301,October,22,1984,0.047,28.07,19.63,23.85,3.09,3.09,3.09,17.55,6.2,11.87,18.09,6.65,12.37,0.0309,0.0365,0.0299
56,187,CBP_12_SAT_Tex3,4.069219327,0.406242432,Type6,rhomboidea,7.69,2.34,22.47,21.94,TX,South,Coleman,Coleman1,"Coleman, Texas",31.83,-99.43,518,February ,18,1994,0,20.93,7.23,14.08,20.36,5.55,12.95,24.89,10.19,17.54,25.15,10.89,18.02,0.0165,0.0154,0.0223
57,245,CBP_2_DES_ARIZ,4.14131295,0.404386261,Type3,rhomboidea,7.53,1.58,16.13,16.13,AZ,Southwest,queencreek,queencreek,"Maricopa County_Arizona_Chandler, Superior, Queen Creek",33.25,-111.15,712,February,16,2001,0.016,14.53,1.13,7.83,22.6,8.39,15.49,28.42,13.02,20.72,28.51,13.23,20.87,0.1398,0.0997,0.0909
58,483,CBP_7_CSCN_IDA,4.087321727,0.401666831,Type3,rhomboidea,15.5,3.75,51,47.75,NE,Northern_Rockies_and_Plains,alliance,alliance,Box Butte County_Nebraska_Alliance,42.11,-102.87,1209,June,6,1975,0,27.93,9.05,18.49,9.27,-5.16,2.06,15.76,-0.1,7.83,15.41,0.08,7.74,0.0096,0.0091,0.0088
59,49,CBP_1_FTG_FLOR,3.107249842,0.401070628,Type3,rhomboidea,3.43,1.04,8.43,8.29,FL,Southeast,homestead,homestead1,"Homestead, Dade County, Florida",25.47,-80.48,1,December,2,1997,0,25.57,15.88,20.72,30.96,22.45,26.71,29.71,20.17,24.94,29.64,20.33,24.98,0.0526,0.0449,0.0487
60,238,CBP_2_BRIT_OKLA,3.980780432,0.399382765,Type3,rhomboidea,6.6,1.45,14.15,14.15,OK,South,norman,norman,"Norman, Cleveland County, Oklahoma",35.22,-97.44,357,May,15,2007,0.02,26.74,15.31,21.03,15.14,3.38,9.26,23.31,10.14,16.73,21.73,9.98,15.86,0.0376,0.0303,0.0422
61,487,CBP_7_FMNH_ILL,2.313545691,0.398886588,Type6,rhomboidea,4.19,1.65,12.9,12.71,IL,Ohio_Valley,,,"Chicago, Cook County, Illinois",#N/A,#N/A,#N/A,,#N/A,#N/A,#N/A,#N/A,#N/A,#N/A,#N/A,#N/A,#N/A,#N/A,#N/A,#N/A,#N/A,#N/A,#N/A,#N/A,#N/A,#N/A
62,168,CBP_10_WIS_WIS,2.28528387,0.394305038,Type3,rhomboidea,5.53,1.58,15.42,15.26,WI,Upper_Midwest,,,Wisconsin,#N/A,#N/A,#N/A,,4,1876,#N/A,#N/A,#N/A,#N/A,#N/A,#N/A,#N/A,#N/A,#N/A,#N/A,#N/A,#N/A,#N/A,#N/A,#N/A,#N/A
63,26,CBP_1_CSCN_NEB,3.758496391,0.393291963,Type3,rhomboidea,4.62,1.31,9.93,9.93,NE,Northern_Rockies_and_Plains,,,Adams County_Nebraska_Hastings,40.59,-98.39,587,June,3,1978,0.034,23.34,10.56,16.95,8.07,-4.01,2.03,15.69,2.78,9.23,15.65,2.43,9.04,0.0162,0.0214,0.0154
64,41,CBP_1_FLAS_OHIO,3.283469657,0.392914889,Type1a1,rhomboidea,4.15,1.17,11.77,11.51,OH,Ohio_Valley,,,"Columbus, Franklin County, Ohio",39.95,-82.98,#N/A,,#N/A,1889,#N/A,#N/A,#N/A,#N/A,#N/A,#N/A,#N/A,#N/A,#N/A,#N/A,#N/A,#N/A,#N/A,#N/A,#N/A,#N/A
65,373,CBP_4_BRIT_Tex,2.502583454,0.391595361,Type3,heteris,1.92,0.54,4.23,4.1,TX,South,Fredericksburg,Fredericksburg1,"Fredericksburg, Texas",30.28,-98.87,514,Janurary,3,1993,0.178,12.53,4.6,8.56,25.25,11.71,18.48,24.64,12.09,18.36,24.58,11.53,18.06,0.0178,0.0283,0.0184
66,221,CBP_17_CSCN_IDA,3.156222704,0.38943626,Type6,rhomboidea,3.16,1.6,11.8,11.67,NE,Northern_Rockies_and_Plains,crawford,crawford,Sioux County_Nebraska_Crawford,42.92,-103.64,1121,May,15,1978,0.128,29.8,12.77,21.28,4.61,-8.06,-1.72,16.92,1.97,9.44,14.01,-0.91,6.55,0.0105,0.0127,0.011
67,89,CBP_1_MSU_WAS,4.325872153,0.387359338,Type3,rhomboidea,3.54,0.74,7.44,7.38,WA,Northwest,ashford,ashford,Pierce County_Washington_Ashford,46.84,-121.78,537,September,31,1962,#N/A,#N/A,#N/A,#N/A,#N/A,#N/A,#N/A,#N/A,#N/A,#N/A,#N/A,#N/A,#N/A,#N/A,#N/A,#N/A
68,257,CBP_2_GA_FLOR,3.39996367,0.385951183,Type3,rhomboidea,5.48,1.45,14.3,14.18,FL,Southeast,staugustine,staugustine,"St. Augustine, St. Johns County, Florida",29.91,-81.32,1.5,April,14,2004,0,21.97,6.9,14.44,21.25,9.97,15.61,25.98,15.86,20.92,26.03,15.81,20.92,0.0204,0.0307,0.0376
69,158,CBP_10_HARV_VIR,2.959885905,0.380915873,Type3,rhomboidea,4.3,1.32,11.09,11.07,VI,Southeast,hampton,hampton,"Hampton , , Virginia",37.01,-76.3,301,April,7,1887,#N/A,#N/A,#N/A,#N/A,#N/A,#N/A,#N/A,#N/A,#N/A,#N/A,#N/A,#N/A,#N/A,#N/A,#N/A,#N/A
70,217,CBP_16_SAT_Tex,3.001078476,0.380828018,Type3,rhomboidea,4.59,1.32,14.01,13.63,TX,South,Brady,Brady1,"Brady, Texas",31.14,-99.33,505,February ,8,2016,0,17.8,-0.57,8.62,23.41,9.03,16.22,26.19,12.71,19.45,26.15,13.17,19.66,0.0209,0.0264,0.0274
71,135,CBP_1_UNA_ILL,2.793862038,0.380638726,Type3,rhomboidea,4.74,1.52,13.59,13.11,IL,Ohio_Valley,starkcounty,starkcounty,"Stark County, Illinois",41.09,-89.8,267,May,26,1907,#N/A,#N/A,#N/A,#N/A,8.06,-2.22,2.92,16.03,4.59,10.31,15.16,4.21,9.68,0.0226,0.0236,0.026
72,38,CBP_1_FLAS_FLOR,1.712279522,0.379938753,Type3,rhomboidea,4.6,2.84,15.42,15.27,FL,Southeast,tallahassee,tallahassee1,"Tallahassee, Leon County, Florida",30.46,-84.25,61,March,14,1957,0.036,26.04,15.24,20.64,22.76,10.11,16.43,26.72,14.12,20.42,26.5,14.67,20.59,0.0138,0.028,0.0446
73,225,CBP_18_BRIT_Tex,2.609581081,0.378284782,Type3,rhomboidea,3.37,1.33,14.68,14.15,TX,South,Arlington,Arlington3,"Arlington, Texas",32.74,-97.11,183,February ,22,1973,0.195,11.83,4.76,8.24,18.08,6.95,12.52,24.46,12.22,18.34,23.85,12.32,18.08,0.0253,0.0196,0.0311
74,383,CBP_4_FARM_VIR,2.498653311,0.376696224,Type3,rhomboidea,3.79,0.9,9.45,9.4,VI,Southeast,staunton,staunton,"Staunton, Highland County, Virginia",38.41,-79.58,776,August,10,1978,0.597,28.9,12.8,20.85,19.96,6.35,13.16,14.68,2.39,8.53,15.9,2.71,9.3,0.0326,0.0325,0.0272
75,210,CBP_15_SAT_Tex,4.82937037,0.374619683,Type3,rhomboidea,4.39,1.42,17.29,16.66,TX,South,Llano,Llano2,"Llano, Texas",30.76,-96.68,99,February ,11,2016,0,25.57,5.2,15.38,23.5,10.16,16.83,26.28,14.01,20.15,26.8,14.31,20.55,0.0459,0.0428,0.0402
76,411,CBP_41_WIS_WIS,3.92039144,0.372905312,Type3,rhomboidea,9.13,1.94,24.31,24.04,WI,Upper_Midwest,jefferson,jefferson,"Jefferson, Jefferson County, Wisconsin",43.01,-88.81,244,May,13,1984,0.984,18.89,6.62,12.75,2.54,-6.99,-2.23,2.54,-6.99,-2.23,2.54,-6.99,-2.23,0.0158,0.0158,0.0158
77,232,CBP_19_WIS_WIS,4.024086626,0.371505512,Type1a2,rhomboidea,6.35,2.3,19.6,19.3,WI,Upper_Midwest,,,Wisconsin,#N/A,#N/A,#N/A,,#N/A,1886,#N/A,#N/A,#N/A,#N/A,#N/A,#N/A,#N/A,#N/A,#N/A,#N/A,#N/A,#N/A,#N/A,#N/A,#N/A,#N/A
78,171,CBP_11_CSCN_IDA,3.617891509,0.371215533,Type2a2,rhomboidea,5.38,1.2,13.47,13.33,NE,Northern_Rockies_and_Plains,chadron,chadron2,Dawes County_Nebraska_Chadron,42.84,-103,1030,April ,16,1977,0,17.43,-0.17,8.63,6.79,-8.01,-0.61,16.41,0.66,8.54,18.45,2.76,10.6,0.0113,0.0125,0.0156
79,62,CBP_1_HAR_MARY,3.603990931,0.369502634,Type3,rhomboidea,3.12,0.77,7.6,7.55,MD,Northeast,accokeek,accokeek,Prince Georges County_Maryland_Accokeek,38.7,-77.07,59,April,20,1985,3.133,12.192,17.08,6.95,11.69,-0.12,5.79,18.84,7.14,12.99,19.28,8.18,13.73,0.0194,0.0247,0.0342
80,392,CBP_4_MICH_MICH,3.368170151,0.369053554,Type3,rhomboidea,4.02,1.21,9.62,9.6,MI,Upper_Midwest,Beaver Island,Beaver Island,"Beaver Island, Charlevoix County, Michigan",45.61,-85.59,212,June,26,1958,0.263,15.6,10.6,13.1,#N/A,#N/A,#N/A,14.08,2.27,8.18,15.6,10.6,13.1,#N/A,0.0225,0.0263
81,403,CBP_4_USF_FLOR,3.047495812,0.364446616,Type3,rhomboidea,3.49,1.18,8.67,8.61,FL,Southeast,homestead,homestead3,"Homestead, Dade County, Florida",25.57,-80.67,1,December,2,1997,0,25.57,15.88,20.72,30.96,22.45,26.71,29.71,20.17,24.94,29.64,20.33,24.98,0.0526,0.0449,0.0487
82,214,CBP_16_BRIT_Tex,3.404644719,0.361300681,Type3,rhomboidea,2.28,0.74,5.86,5.76,TX,South,FortWorth,FortWorth11,"Fort Worth, Texas",32.73,-97.32,198,February ,25,1974,0,9.8,-6.68,1.56,2.32,20.65,7.33,24.27,11.45,17.86,24.5,11.59,18.04,0.0232,0.0283,0.0261
83,190,CBP_12_WIS_WIS,4.257350984,0.360319389,Type3,rhomboidea,8.85,2.05,19.1,19.05,WI,Upper_Midwest,madison,madison7,"Madison, Madison County, Wisconsin",43.07,-89.4,266,October,#N/A,1893,0,27.16,17.99,22.58,#N/A,#N/A,#N/A,#N/A,#N/A,#N/A,#N/A,#N/A,#N/A,#N/A,#N/A,#N/A
84,449,CBP_5_URV_VIR,4.049760161,0.359726614,Type3,rhomboidea,3.12,0.7,6.72,6.72,VI,Southeast,richmond,richmond5,"Richmond, Henrico County, Virginia",37.54,-77.43,50.7,April,25,1932,0.033,25.3,9.15,17.23,10.2,-0.62,4.79,20.04,8.09,14.06,19.69,7.73,13.71,0.0362,0.0323,0.0327
85,506,CBP_8_CSCN_IDA,4.726831892,0.359360075,Type3,rhomboidea,5.45,1.64,14,13.86,NE,Northern_Rockies_and_Plains,chadron,chadron4,Dawes County_Nebraska_Chadron,42.82,-103,1030,June,22,1976,0.004,21.34,2.78,12.06,13.19,-1.59,5.8,17.74,1.47,9.61,16.32,0.71,8.51,0.0103,0.0101,0.0102
86,494,CBP_7_SAT_Tex,2.469265212,0.359197115,Type6,rhomboidea,3.79,0.88,8.36,8.26,TX,South,Hondo,Hondo1,"Hondo, Texas",29.35,-99.14,271,March ,26,1970,0,28.35,3.35,15.85,21,7.32,14.16,27.47,13.29,20.38,27.21,12.76,19.99,0.0226,0.0223,0.0159
87,86,CBP_1_MSSA_UTAH,3.505706862,0.358556592,Type3,rhomboidea,5.76,1.41,13.71,13.53,UT,Southwest,saltlakecity,saltlakecity1,"Salt Lake City, Salt Lake County, Utah",40.76,-111.89,1307.2,June,10,1880,#N/A,#N/A,#N/A,#N/A,#N/A,#N/A,#N/A,#N/A,#N/A,#N/A,#N/A,#N/A,#N/A,#N/A,#N/A,#N/A
88,468,CBP_6_MICH_MICH,3.45701655,0.358171254,Type1a2,rhomboidea,4.9,1.35,11.96,11.92,NE,Upper_Midwest,Ypsilanti,Ypsilanti,"Ypsilanti, Washtenaw County, Michigan",42.24,-83.61,219,May,17,1916,0.008,10.68,4.85,7.64,5.29,-4.75,0.27,13.63,3.08,8.35,14.99,3.2,9.09,0.0199,0.0255,0.0212
89,250,CBP_2_ESTU_VIR,3.306587921,0.35657736,Type3,rhomboidea,3.88,0.83,9.57,9.48,VI,Southeast,,,"Kingsport, Scott County, Virginia",36.7,-82.73,30,April,#N/A,1978,#N/A,#N/A,#N/A,#N/A,#N/A,#N/A,#N/A,#N/A,#N/A,#N/A,#N/A,#N/A,#N/A,#N/A,#N/A,#N/A
90,3,CBP_1_ALB_MICH,4.003027241,0.356479577,Type1a2,rhomboidea,4.71,1,10.2,10.17,MI,Upper_Midwest,,,"Lowell, Kent County, Michigan",42.97,-85.32,301,August,17,#N/A,#N/A,#N/A,#N/A,#N/A,#N/A,#N/A,#N/A,#N/A,#N/A,#N/A,#N/A,#N/A,#N/A,#N/A,#N/A,#N/A
91,191,CBP_13_BRIT_Tex,3.922476379,0.356374563,Type1a2,heteris,5.08,1.07,12.75,12.35,TX,South,FortWorth,FortWorth2,"Fort Worth, Texas",32.73,-97.32,198,February ,25,1974,0,9.8,-6.68,1.56,20.65,7.33,13.99,24.27,11.45,17.86,24.5,11.59,18.04,0.0232,0.0283,0.0261
92,329,CBP_3_HAR_FLOR,3.588318989,0.355219011,Type1a2,rhomboidea,5.39,1.4,13.62,13.58,FL,Southeast,marianna,marianna1,"Marianna, Jackson, Florida",30.77,-85.23,51,February,9,1957,0.041,28.23,14.63,21.43,24.87,11.59,18.23,27.07,14.17,20.62,26.52,14.52,20.52,0.0257,0.0342,0.0406
93,91,CBP_1_MUHW_OHIO,3.134221209,0.354244165,Type6,rhomboidea,3.15,0.88,7.59,7.49,OH,Ohio_Valley,ironton,ironton,"Ironton, Lawrence County, Ohio",38.6,-82.64,301,April,27,1984,0.09,29.43,11.87,20.65,9.32,-2.53,3.39,18.49,5.15,11.82,18.2,5.48,11.84,0.0266,0.0309,0.0276
94,118,CBP_1_SAT_Tex,3.379548388,0.354170097,Type6,rhomboidea,2.75,1.08,5.33,5.35,TX,South,Waco,Waco1,"Waco, Texas",31.55,-97.15,142,February,15,1982,0,20.46,8.76,14.61,20.98,7.95,14.46,25.25,12.71,18.98,25.49,12.89,19.19,0.0211,0.0246,0.0197
95,219,CBP_16_WIS_WIS,4.173846491,0.352851773,Type3,rhomboidea,4.95,1.1,10.6,10.6,WI,Upper_Midwest,,,"Wisconsin, ",#N/A,#N/A,#N/A,May,22,1962,#N/A,#N/A,#N/A,#N/A,#N/A,#N/A,#N/A,#N/A,#N/A,#N/A,#N/A,#N/A,#N/A,#N/A,#N/A,#N/A
96,355,CBP_3_VSC_GEOR,3.046901017,0.351262735,Type3,rhomboidea,5.18,1.59,13.09,13.03,GA,Southeast,quitman,quitman1,"Quitman, Brooks County, Georgia",31.97,-83.56,57.9,April,17,1966,0,27,9.68,18.34,18.01,4.73,11.37,24.62,11.73,18.17,24.35,11.54,17.94,0.0349,0.0336,0.0357
97,488,CBP_7_HARV_VIR,2.468776583,0.348147557,Type3,rhomboidea,6.24,1.68,18.35,18.31,VI,Southeast,exmore,exmore,"Exmore, Northamptom County, Virginia",37.35,-75.95,986,October,11,1935,0,26.4,12.2,19.3,26.47,16.61,21.54,19.32,9.14,14.23,19.04,9.41,14.22,0.0317,0.0264,0.0285
98,397,CBP_4_PH_DELA,2.934949018,0.347877403,Type3,rhomboidea,3.59,1.22,9.43,9.37,DE,Northeast,wilmington,wilmington2,"Wilmington, New Castle County, Delaware",39.75,-75.55,28,June,3,1898,#N/A,#N/A,#N/A,#N/A,#N/A,#N/A,#N/A,#N/A,#N/A,#N/A,#N/A,#N/A,#N/A,#N/A,#N/A,#N/A
99,295,CBP_2_UWFP_FLOR,2.910337846,0.347118098,Type3,rhomboidea,3.74,1.21,10.05,9.93,FL,Southeast,pensacola,pensacola2,"Pensacola, Escambia County, Florida",30.43,-87.24,31,February,19,1977,0.138,21.46,11.12,16.29,18.14,6.4,12.27,23.58,11.57,17.57,25.52,14.17,19.84,0.0415,0.0357,0.0353
100,45,CBP_1_FSU_ALA,2.370385963,0.345765583,Type1a1,rhomboidea,6.29,2.46,20.23,19.94,AL,Southeast,mobile,mobile1,"Mobile, Mobile County, Alabama",30.7,-88.04,3,March,1,1992,0,24.27,7.31,15.79,19.69,6.96,13.33,25.01,13.44,19.22,24.79,13.01,18.9,0.0414,0.0521,0.0476
101,5,CBP_1_ARIZ_ALA,2.69612803,0.345637841,Type6,rhomboidea,7,2.58,21.08,20.83,AL,Southeast,andalusia,andalusia1,"Andalusia, Covington County, Alabama",31.41,-86.61,108,December,30,2017,0.01,15.72,2.09,8.91,27.67,16.86,22.27,26.52,15.27,20.89,26.54,15.31,20.92,0.0481,0.0569,0.057
102,529,CBP_9_MARY_MARY,3.152400391,0.342758779,Type3,rhomboidea,5.37,1.58,13.79,13.6,MD,Northeast,ellicottcity,ellicottcity,Howard County_Maryland_Ellicott City,39.27,-76.8,55,,#N/A,1964,#N/A,#N/A,#N/A,#N/A,#N/A,#N/A,#N/A,#N/A,#N/A,#N/A,#N/A,#N/A,#N/A,#N/A,#N/A,#N/A
103,205,CBP_14_SAT_Tex,3.369639681,0.34203304,Type6,heteris,4.27,1.18,9.51,9.31,TX,South,SanAngelo,SanAngelo2,"San Angelo, Texas",31.27,-100.28,579,March,7,2012,0,22.8,12.1,17.45,19.41,4.23,11.82,28.21,11.8,20,26.72,11.45,19.09,0.0209,0.0152,0.0244
104,209,CBP_15_SAT_Tex,3.371852162,0.34203304,Type3,heteris,6.07,1.93,17.88,17.65,TX,South,Llano,Llano1,"Llano, Texas",30.76,-96.68,99,February ,11,2016,0,25.57,5.2,15.38,23.5,10.16,16.83,26.28,14.01,20.15,26.8,14.31,20.55,0.0459,0.0428,0.0402
105,194,CBP_13_MICH_MICH,4.991659561,0.341241104,Type1a1,rhomboidea,6.29,0.96,13.61,13.59,MI,Upper_Midwest,Alpena,Alpena,"Alpena, Alpena County, Michigan",45.08,-83.44,969,May,26,1972,#N/A,#N/A,#N/A,#N/A,-2.1,-5.7,-3.9,10.93,-0.05,5.44,10.51,0.18,5.34,0.0168,0.0206,0.0213
106,360,CBP_31_WIS_WIS,2.973448195,0.341115263,Type3,rhomboidea,7,2.05,19.8,19.55,WI,Upper_Midwest,madison,madison5,"Madison, Dane County, Wisconsin",43.07,-89.4,266,May,26,1886,0,16.6,8.08,12.34,3.5,-4.72,-0.61,3.5,-4.72,-0.61,3.5,-4.72,-0.61,0.0264,0.0264,0.0264
107,70,CBP_1_HCMH_MICH,3.433692843,0.341007344,Type1a2,rhomboidea,4.55,1,10.33,10.25,MI,Upper_Midwest,Charlevoix County,Charlevoix County,"Charlevoix County, Michigan",45.28,-84.74,969,October,5,1985,0.415,10.83,2.95,6.89,6.54,-3.24,1.65,14.81,3.77,9.29,11.42,0.69,6.05,0.0221,0.0226,0.0267
108,11,CBP_1_BHSU_MON,3.016406899,0.340364938,Type6,rhomboidea,2.33,2.11,7,6.67,NE,Northern_Rockies_and_Plains,glasgow,,Valley County_Montana_Glasgow,48.2,-106.62,637,May,10,2011,3.032,10.28,5.08,7.68,-0.79,-11.05,-5.92,11.04,-1.38,4.83,12.81,-0.07,6.37,0.0128,0.0159,0.0196
109,180,CBP_11_WIS_WIS,3.179349283,0.334916677,Type3,rhomboidea,5,1.53,12.74,12.53,WI,Upper_Midwest,waupan,waupan,"Waupan, Fond Du Lac County, Wisconsin",43.66,-88.86,969,June,6,1965,0.656,26.41,16.68,21.54,6.36,-4.36,1,6.36,-4.36,1,6.36,-4.36,1,0.0183,0.0183,0.0183
110,315,CBP_3_BRIT_Tex,3.648525498,0.333811092,Type3,rhomboidea,9.51,2.41,29.53,28.9,TX,South,Gunter,Gunter1,"Gunter, Texas",33.45,-96.75,214,April ,2,1935,0,24.48,12.1,18.29,18.28,4.97,11.63,27.12,13.28,20.2,23.94,11.55,17.74,0.0234,0.0185,0.0361
111,316,CBP_3_BRIT_Tex,3.648525498,0.333811092,Type3,rhomboidea,9.03,1.74,24.66,23.8,TX,South,Gunter,Gunter1,"Gunter, Texas",33.45,-96.75,214,April ,2,1935,0,24.48,12.1,18.29,18.28,4.97,11.63,27.12,13.28,20.2,23.94,11.55,17.74,0.0234,0.0185,0.0361
112,420,CBP_5_ACU_Tex,3.437847026,0.333229211,Type1a2,rhomboidea,3.85,0.95,10.01,9.82,TX,South,Waco,Waco3,"Waco, Texas",31.55,-97.15,142,February ,22,1982,0,29.02,6.56,17.79,21.12,7.89,14.51,25.3,12.72,19.01,25.49,12.89,19.19,0.0202,0.0245,0.0197
113,154,CBP_10_BRIT_Tex,2.79231471,0.33163534,Type3,rhomboidea,3.65,1.23,15.49,14.9,TX,South,Dallas,Dallas1,"Dallas, Texas",32.78,-96.81,128,March ,27,1973,0.278,26.03,9.72,17.88,16.26,4.89,10.58,24.7,12.59,18.65,24.29,12.73,18.51,0.0287,0.022,0.0354
114,198,CBP_13_WIS_WIS,2.839259902,0.330268364,Type3,rhomboidea,5.15,1.35,14.7,14.45,WI,Upper_Midwest,,," Milwaukee, Milwaukee County, Wisconsin",43.04,-87.91,188,,#N/A,#N/A,#N/A,#N/A,#N/A,#N/A,#N/A,#N/A,#N/A,#N/A,#N/A,#N/A,#N/A,#N/A,#N/A,#N/A,#N/A,#N/A
115,415,CBP_45_WIS_WIS,3.773059912,0.329827069,Type3,rhomboidea,3.95,0.8,8.85,8.8,WI,Upper_Midwest,oshkosh,oshkosh,"Oshkosh, Winnebago County, Wisconsin",44.83,-87.38,178,May,20,1965,0,18.78,4.88,11.83,3.03,-7.03,-2,3.03,-7.03,-2,3.03,-7.03,-2,0.0203,0.0203,0.0203
116,534,CBP_9_UWFP_FLOR,3.005274341,0.328975728,Type3,rhomboidea,6.38,2.02,18.45,18.29,FL,Southeast,pensacola,pensacola9,"Pensacola, Escambia County, Florida",30.43,-87.24,31,February,17,1990,1.332,19.34,11.78,15.56,20.98,9.33,15.15,25.75,14.86,20.31,25.85,14.61,20.23,0.0513,0.0487,0.0449
117,357,CBP_3_WIS_WIS,4.0627299,0.328541183,Type6,rhomboidea,5.25,1.2,13,12.55,WI,Upper_Midwest,newlondon,newlondon1,"New London, Outgamie County, Wisconsin",44.28,-88.71,969,October,9,1977,1.259,22.78,15.99,19.38,8.1,-3.31,2.4,8.1,-3.31,2.4,8.1,-3.31,2.4,0.0164,0.0164,0.0164
118,195,CBP_13_SAT_Tex,3.29544666,0.327397684,Type1a2,rhomboidea,3.58,0.98,11,10.21,TX,South,SanAngelo,SanAngelo1,"San Angelo, Texas",31.46,-100.44,561,Feb,25,2002,0,24.23,1.83,13.03,20.66,5.5,13.08,25.71,11.02,18.37,25.67,11.19,18.43,0.0119,0.0116,0.0141
119,188,CBP_12_URV_VIR,3.829557574,0.326123419,Type1a3,rhomboidea,7.12,1.5,16.88,16.74,VI,Southeast,richmond,richmond10,"Richmond City, , Virginia",37.54,-77.43,50.7,April ,27,1931,#N/A,#N/A,#N/A,#N/A,#N/A,#N/A,#N/A,#N/A,#N/A,#N/A,#N/A,#N/A,#N/A,#N/A,#N/A,#N/A
120,125,CBP_1_TTRS_GEOR,3.308086339,0.322917952,Type3,rhomboidea,3.7,0.95,9.3,9.23,GA,Southeast,gray,gray,"Gray, Jones County, Georgia",33.01,-83.53,184,April,11,1965,0.141,26.36,15.58,20.97,17.59,4.28,10.94,24.08,11.07,17.58,23.61,10.43,17.02,0.0379,0.035,0.0301
121,330,CBP_3_HAR_IDA,3.139832792,0.320600766,Type1a2,rhomboidea,4.51,1.13,16.64,16.4,NE,Northern_Rockies_and_Plains,neligh,neligh,Antelope County_Nebraska_Neligh,42.13,-98.03,534,May,2,1896,#N/A,#N/A,#N/A,#N/A,7.03,-6.77,0.13,15.52,-0.12,7.7,16.34,1.68,9.01,0.0169,0.0164,0.0222
122,258,CBP_2_GMUF_VIR,3.940993783,0.319150355,Type3,rhomboidea,3.61,0.89,8.59,8.43,VI,Southeast,winchester,winchester3,"Winchester, Frederick County, Virginia",39.07,-78.32,301,May,8,1971,1.25,18.36,8.64,13.5,9.1,-2.62,3.24,17.33,5.55,11.44,17.28,5.79,11.54,0.0218,0.0285,0.0306
123,129,CBP_1_UGA_ALA,4.494820363,0.318754418,Type3,rhomboidea,6.24,1.24,13.49,13.46,AL,Southeast,andalusia,andalusia2,"Andalusia, Covington County, Alabama",31.41,-86.61,357,December,30,2017,0.01,15.72,2.09,8.91,27.67,16.86,22.27,26.52,15.27,20.89,26.54,15.31,20.92,0.0481,0.0569,0.057
124,59,CBP_1_HAR_IDA,3.747320721,0.318092992,Type3,rhomboidea,7.11,1.79,18.11,17.47,ID,Northwest,,,Canyon County_Idaho_New Plymouth,43.97,-116.82,690,June,#N/A,#N/A,#N/A,#N/A,#N/A,#N/A,#N/A,#N/A,#N/A,#N/A,#N/A,#N/A,#N/A,#N/A,#N/A,#N/A,#N/A,#N/A
125,317,CBP_3_BRY_UTAH,3.929621126,0.316533448,Type6,rhomboidea,4.54,0.99,10.98,10.94,UT,Southwest,springville,springville1,"Springville, Utah County, Utah",40.17,-111.36,2404,June,24,2020,0,27.94,10.68,19.31,10.89,-1.06,4.92,14.14,1.55,7.85,14.78,1.69,8.24,0.015,0.0141,0.01
126,475,CBP_6_UWFP_FLOR,2.953964047,0.3157259,Type3,rhomboidea,4.33,1.38,13.02,12.88,FL,Southeast,pensacola,pensacola6,"Pensacola, Escambia County, Florida",30.43,-87.24,31,December,20,2002,0.482,17.34,5.9,11.62,19.25,6.66,12.95,24.8,13.23,19.01,24.89,13.21,19.05,0.0628,0.0586,0.0467
128,207,CBP_15_BRIT_Tex,3.86870586,0.313492307,Type3,heteris,2.66,0.7,6.51,6.39,TX,South,Arlington,Arlington1,"Arlington, Texas",32.74,-97.11,183,March ,19,1971,0.2,16.34,1.34,8.84,18.97,5.32,12.15,25.17,12.74,18.96,24.79,12.51,18.65,0.0091,0.0186,0.0262
129,363,CBP_34_WIS_WIS,4.341715127,0.31179296,Type3,rhomboidea,5.15,0.9,12.15,11.9,WI,Upper_Midwest,,,"Oshkosh, Winnebago County, Wisconsin",44.03,-88.55,233,,#N/A,1965,#N/A,#N/A,#N/A,#N/A,#N/A,#N/A,#N/A,#N/A,#N/A,#N/A,#N/A,#N/A,#N/A,#N/A,#N/A,#N/A
130,370,CBP_4_ASU_ARIZ,4.028775167,0.311707941,Type3,rhomboidea,5.23,1.02,13.33,13.02,AZ,Southwest,cochise,cochise,Cochise County_Arizona_Cochise,31.45,-109.92,1287,April,13,2003,0,27.14,10.73,18.94,18.55,2.63,10.59,25.23,9.24,17.23,25.69,9.46,17.57,0.054,0.0824,0.0736
131,74,CBP_1_JCIH_GEOR,3.041734452,0.310097118,Type3,rhomboidea,4.19,1,12.14,12.06,GA,Southeast,newton,newton,"Newton, Baker County, Georgia ",33.6,-83.86,43,March,2,2017,0.804,20.9,5.4,13.15,20.3,5.28,12.79,25.6,11.37,18.48,23.52,10.91,17.22,0.0322,0.0299,0.0467
132,51,CBP_1_GA_VIR,4.019555272,0.309642614,Type6,rhomboidea,6.6,1.48,15.65,15.45,VI,Southeast,winchester,winchester1," Winchester, Loudon County, Virginia",39.11,-77.83,301,May,30,1904,#N/A,#N/A,#N/A,#N/A,10.79,-2.5,4.15,17.7,3.85,10.78,18.05,3.68,10.86,0.0165,0.024,0.0239
133,336,CBP_3_MARY_MARY,4.994933329,0.309321235,Type3,rhomboidea,9.18,1.5,20.41,20.05,MD,Northeast,uppermarlboro,uppermarlboro,Prince Georges County_Maryland_Upper Marlboro,38.82,-76.75,7,March,29,1990,#N/A,#N/A,#N/A,#N/A,12.79,0.85,6.82,19.42,7.89,13.66,#N/A,#N/A,#N/A,0.0256,0.0355,#N/A
134,312,CBP_3_ASU_ARIZ,3.875136926,0.307887904,Type3,rhomboidea,5.21,1.49,13.69,13.56,AZ,Southwest,tempe,tempe3,"Maricopa County_Arizona_Phoenix, Tempe",33.43,-111.94,347.27,February,7,2015,0,26.4,9.68,18.04,26.21,12.77,19.49,30.41,15.79,23.1,30.21,16.03,23.12,0.1613,0.1089,0.0803
135,124,CBP_1_TROY_ALA,2.801942552,0.307725526,Type3,rhomboidea,2.23,1,18.8,18.75,AL,Southeast,dothan,dothan,"Dothan, Houston County, Alabama",31.23,-85.39,317,December,11,2011,0.038,12.98,2.64,7.81,28.94,15.43,22.19,26.26,12.1,19.18,26.56,12.5,19.53,0.034,0.03,0.0315
136,240,CBP_2_BRY_UTAH,3.921819582,0.3068459,Type3,rhomboidea,6.47,1.21,15.58,15.37,UT,Southwest,eureka,eureka3,"Eureka, Toole County, Utah",40.02,-112.41,1813.97,May,24,1995,1.078,17.79,6.9,12.34,10.88,-2.46,4.21,18.86,3.4,11.13,18.41,2.12,10.27,0.018,0.014,0.012
137,21,CBP_1_CMC_MICH,5.550398875,0.305712878,Type3,rhomboidea,8.1,1.29,17.46,17.44,MI,Upper_Midwest,Mt. Pleasant,Mt. Pleasant,"Mt. Pleasant, Isabella County, Michigan",43.6,-84.9,969,September,18,1997,0.29,26.1,9.15,17.63,21.68,8.01,14.84,12.53,1.25,6.89,13.18,1.5,7.34,0.0212,0.0217,0.0186
138,244,CBP_2_CSCN_IDA,3.572120395,0.305207389,Type3,rhomboidea,4.48,0.83,10.8,10.72,NE,Northern_Rockies_and_Plains,littlebluetownship,littlebluetownship,Adams County_Nebraska_Little Blue Township,40.4,-98.33,565,May,21,1990,0.715,14.7,7.5,11.1,10.18,-3.52,3.33,17.53,3.51,10.52,18.38,4.29,11.34,0.0154,0.02,0.0189
139,37,CBP_1_FARM_VIR,2.882381051,0.305197334,Type1a2,rhomboidea,4.43,1.48,11.23,11.16,VI,Southeast,roanokecounty,roanokecounty,"Roanoke County, Virginia",37.27,-79.94,530,June,12,1979,0,23.72,7.87,15.79,14.31,2.18,8.24,18.88,6.18,12.53,18.04,5.95,12,0.038,0.0299,0.0371
140,366,CBP_37_WIS_WIS,4.146403507,0.303933515,Type3,rhomboidea,8.79,2.05,21.47,21.32,WI,Upper_Midwest,wetboro,wetboro,"Westboro, Taylor County, Wisconsin",45.36,-90.29,449,July,18,1993,0.075,25.2,17.2,21.2,11.2,-0.73,5.23,11.2,-0.73,5.23,11.2,-0.73,5.23,0.0265,0.0265,0.0265
141,63,CBP_1_HAR_MON,2.707549291,0.303683787,Type1a1,rhomboidea,5.05,1.23,12.81,12.67,NE,Northern_Rockies_and_Plains,,,Montana,#N/A,#N/A,#N/A,,#N/A,#N/A,#N/A,#N/A,#N/A,#N/A,#N/A,#N/A,#N/A,#N/A,#N/A,#N/A,#N/A,#N/A,#N/A,#N/A,#N/A,#N/A
142,141,CBP_1_USFS_ARIZ,1.741253424,0.303309098,Type3,simplex,4.95,2.75,18.34,18.23,AZ,Southwest,roosevelt,roosevelt,Gila County_Arizona_Roosevelt,33.67,-111.13,675,December,6,2000,0,19.76,4.44,12.1,29.93,15.78,22.85,27.36,12.06,19.71,27.4,12.09,19.74,0.1732,0.1076,0.1079
143,29,CBP_1_DOV_DELA,2.547936177,0.30263868,Type3,rhomboidea,2.54,0.93,7.07,7,DE,Northeast,,,"Newark, New Castle County, Delaware",39.68,-75.75,39,April,16,1925,#N/A,#N/A,#N/A,#N/A,#N/A,#N/A,#N/A,#N/A,#N/A,#N/A,#N/A,#N/A,#N/A,#N/A,#N/A,#N/A
144,346,CBP_3_SAT_Tex,2.444114413,0.302482574,Type3,rhomboidea,5.39,1.09,16.79,16.25,TX,South,Mason,Mason,"Mason, Texas",30.75,-99.23,468,March ,19,1994,0,30,11.1,20.55,19.14,4.32,11.73,25.68,10.62,18.15,26.13,11.31,18.72,0.0129,0.0162,0.0215
145,530,CBP_9_MICH_MICH,3.049455879,0.301274888,Type3,rhomboidea,4.16,1.35,10.99,10.96,MI,Upper_Midwest,East Lansing,East Lansing,"East Lansing, Ingham County, Michigan",42.74,-84.48,261,May,13,1938,0,17.93,-0.68,8.63,5.11,-3.38,0.87,13.81,3.24,8.53,15.2,4.17,9.68,0.0313,0.028,0.0238
146,270,CBP_2_LSU_GEOR,3.925505581,0.301015635,Type3,rhomboidea,9.33,2.38,24.98,24.88,GA,Southeast,athens,athens3,"Athens, Clarke County, Georgia",33.95,-83.38,194,April,14,1911,#N/A,#N/A,#N/A,#N/A,16.13,3.44,9.78,22.52,10.46,16.49,24.1,11.39,17.74,0.0249,0.0309,0.0314
147,87,CBP_1_MSU_ARIZ,5.074049242,0.30053592,Type3,rhomboidea,3.46,0.44,7.68,7.83,AZ,Southwest,sedona,sedona,Coconine County_Arizona_Sedona,35.03,-111.75,1330,May,6,1961,0,17.8,2.44,10.12,14.66,-1.72,6.47,21.72,4.54,13.13,21.04,4.04,12.54,0.0826,0.1019,0.1205
148,398,CBP_4_SAT_Tex,4.828542578,0.300458175,Type6,rhomboidea,9.13,2.08,24.66,23.8,TX,South,CollegeStation,CollegeStation5,"College Station, Texas",30.63,-96.33,102,February,22,1977,0.004,26.1,6.67,16.38,24.37,9.23,16.8,27.09,13.69,20.39,27.4,12.73,20.06,0.0247,0.0308,0.0227
149,109,CBP_1_NY_NEVA,3.826000321,0.298161932,Type3,rhomboidea,7.05,1.63,17.15,17.12,NV,West,welcome,welcome,Elko County_Nevada_Welcome,41.05,-115.18,1733,May,23,1941,0.245,25.1,6.66,15.88,9.25,-4.8,2.22,15.87,-1.01,7.43,19.66,2.66,11.16,0.0111,0.0088,0.0131
150,426,CBP_5_CSCN_IDA,1.975865776,0.297854737,Type1a2,rhomboidea,3.33,1.07,12.76,12.53,NE,Northern_Rockies_and_Plains,longpine,longpine,Banner County_Nebraska_Long Pine,41.42,-103.53,732,May,2,1987,0.09,27.12,9.58,18.35,9.55,-6.17,1.69,17.31,1.21,9.26,17.54,0.82,9.18,0.0063,0.0123,0.0128
151,31,CBP_1_DOV_VIR,2.745151668,0.296849948,Type6,rhomboidea,8.63,2.09,23.46,23.33,VI,Southeast,pocomokecity,pocomokecity,"Pocomoke City, Accomac County, Virginia",38.07,-75.56,2,May,22,1938,0.828,27.56,15.56,21.56,14.09,3.04,8.56,19.59,8.57,14.08,20.14,9.02,14.58,0.0244,0.0334,0.0386
152,440,CBP_5_MICH_MICH,2.744330734,0.296657886,Type3,rhomboidea,4.29,1.52,11.91,11.85,MI,Upper_Midwest,Richmond,Richmond,"Richmond, Macomb County, Michigan",42.84,-82.88,1134,June,18,1958,0.244,21.68,11.4,16.54,9.77,-0.38,4.69,14.36,4.21,9.28,14.19,3.73,8.96,0.0115,0.0194,0.0138
153,276,CBP_2_NLU_VIR,3.860065522,0.29654304,Type3,rhomboidea,5.82,2.46,29.69,29.18,VI,Southeast,leesburg,leesburg,"Leesburg, Loudoun County, Virginia",39.11,-77.55,104,April,24,1969,0.014,13.37,4.8,9.09,9.09,-1.24,3.93,17.42,6.02,11.72,17.88,6.5,12.19,0.0186,0.0246,0.0253
154,65,CBP_1_HAR_OHIO,3.244180912,0.29614811,Type3,rhomboidea,3.28,1.13,9.89,9.86,OH,Ohio_Valley,,,Ohio,#N/A,#N/A,#N/A,,#N/A,#N/A,#N/A,#N/A,#N/A,#N/A,#N/A,#N/A,#N/A,#N/A,#N/A,#N/A,#N/A,#N/A,#N/A,#N/A,#N/A,#N/A
155,521,CBP_9_BRIT_Tex,2.61241085,0.295255197,Type3,rhomboidea,4.01,1.45,14.1,13.57,TX,South,Dallas,Dallas6,"Dallas, Texas",32.78,-96.81,128,April ,12,1944,0,21.4,5,13.2,16.58,4.71,10.65,24.59,12.6,18.59,24.51,12.92,18.71,0.0225,0.0208,0.028
156,6,CBP_1_ARIZ_ARIZ,4.275656306,0.294659394,Type3,rhomboidea,3.92,0.7,10.43,10.12,AZ,Southwest,tucson,tucson1,Santa Cruz County_Arizona_Tuscon,31.7,-110.85,2524,April,4,2018,0,26.99,7.94,17.47,20.9,4.86,12.88,26.94,10.56,18.75,25.94,9.84,17.89,0.0591,0.0789,0.1252
157,448,CBP_5_ULA_WIS,3.402216556,0.29447348,Type3,rhomboidea,4.19,0.84,11.75,11.53,WI,Upper_Midwest,riverfalls,riverfalls,"River Falls, Pierce County, Wisconsin",44.85,-92.62,84,May,5,1972,0.1,16.15,3.05,9.6,-0.83,-10.86,-5.85,-0.83,-10.86,-5.85,-0.83,-10.86,-5.85,0.0094,0.0094,0.0094
158,55,CBP_1_GVSC_MICH,3.168122818,0.293121365,Type1a2,rhomboidea,3.21,1.08,8.39,8.34,MI,Upper_Midwest,Hudsonville,Hudsonville2,"Hudsonville, Ottowa County, Michigan",42.98,-85.89,969,May,17,1967,0,18.34,6.58,12.46,5.53,-3.67,0.93,14.82,4.06,9.44,13.47,3.38,8.42,0.0236,0.0271,0.0267
159,88,CBP_1_MSU_MICH,4.03392857,0.291309629,Type3,rhomboidea,8.06,1.84,20.94,20.76,MI,Upper_Midwest,Williamston,Williamston,"Williamston, Ingham County, Michigan",42.69,-84.28,272,September,26,2021,0.147,19.5,7.91,13.71,23.88,11.66,17.77,15.03,3.96,9.49,15.44,4.53,9.99,0.0396,0.0292,0.0313
160,47,CBP_1_FSU_INDI,2.205714369,0.291009842,Type1a2,rhomboidea,1.58,0.67,5.42,5.25,IN,Ohio_Valley,monroecounty,monroecounty,"Monroe County, Indiana",#N/A,-86.52,303,April,27,1960,#N/A,#N/A,#N/A,#N/A,8.39,-1.9,3.25,18.74,7.02,12.88,18.05,5.76,11.91,0.0192,0.0256,0.0243
161,218,CBP_16_SAT_Tex,3.551684913,0.290792612,Type3,rhomboidea,9.34,1.79,17.72,17.37,TX,South,Brady,Brady1,"Brady, Texas",31.14,-99.33,505,February ,8,2016,0,17.8,-0.57,8.62,23.41,9.03,16.22,26.19,12.71,19.45,26.15,13.17,19.66,0.0209,0.0264,0.0274
162,233,CBP_2_ACU_Tex,2.584439628,0.289871881,Type3,rhomboidea,2.43,0.66,5.02,4.99,TX,South,Abilene,Abilene3,"Abilene, Texas",32.45,-99.73,524,March,3,1970,0,16.9,3.1,10,28.15,14.83,21.49,24.46,11.68,18.07,24.53,11.64,18.09,0.0192,0.018,0.0175
163,459,CBP_6_CSCN_IDA,4.207202403,0.289604875,Type1a2,rhomboidea,5.04,1.07,12.36,12.24,NE,Northern_Rockies_and_Plains,albin,albin,Banner County_Nebraska_Albin,41.42,-104.02,540,June,3,1977,0,32.75,12.5,22.63,11.61,-3.7,3.95,16.87,0.08,8.48,16.94,0.96,8.95,0.0135,0.0092,0.0102
164,222,CBP_17_MICH_MICH,3.42484867,0.286769547,Type3,rhomboidea,4.28,1.27,11.44,11.37,MI,Upper_Midwest,Otsego,Otsego,"Otsego, Allegan County, Michigan",42.46,-85.73,969,June,11,2017,0,31.75,18.25,25,11.81,1.48,6.65,16.39,5.79,11.09,15.75,4.95,10.35,0.0293,0.033,0.0342
165,362,CBP_33_WIS_WIS,3.532657927,0.286039238,Type3,rhomboidea,6.68,1.95,17.95,17.58,WI,Upper_Midwest,utica,utica,"Utica, Winnebago County, Wisconsin",43.96,-88.65,347,June,20,1956,0.242,31.1,19.24,25.17,8.44,-3.34,2.55,8.44,-3.34,2.55,8.44,-3.34,2.55,0.0181,0.0181,0.0181
166,304,CBP_23_WIS_WIS,3.78740866,0.285255804,Type3,rhomboidea,8.4,1.6,24.6,23.9,WI,Upper_Midwest,saukcity,saukcity1,"Sauk City, Sauk County, Wisconsin",43.2,-89.95,969,May,19,1960,1.277,19.1,13.38,16.24,3.67,-6.4,-1.36,3.67,-6.4,-1.36,3.67,-6.4,-1.36,0.0188,0.0188,0.0188
167,394,CBP_4_NY_IDA,2.225513552,0.284471494,Type6,rhomboidea,6.39,1.91,22.14,21.8,NE,Northern_Rockies_and_Plains,,,Lancaster County_Nebraska_Sprague,40.62,-96.75,390,,24,1978,#N/A,#N/A,#N/A,#N/A,#N/A,#N/A,#N/A,#N/A,#N/A,#N/A,#N/A,#N/A,#N/A,#N/A,#N/A,#N/A
168,464,CBP_6_HARV_VIR,3.269813915,0.282549217,Type3,rhomboidea,2.95,0.79,7.74,7.53,VI,Southeast,,,,#N/A,#N/A,#N/A,,#N/A,#N/A,#N/A,#N/A,#N/A,#N/A,#N/A,#N/A,#N/A,#N/A,#N/A,#N/A,#N/A,#N/A,#N/A,#N/A,#N/A,#N/A
169,44,CBP_1_FMNH_ILL,4.184041971,0.28217431,Type1a1,rhomboidea,4.6,0.86,12.92,12.7,IL,Ohio_Valley,parkridge,parkridge,"Park Ridge , Cook County, Illinois",42.02,-87.86,192,May,15,1907,#N/A,#N/A,#N/A,#N/A,5.92,-2.99,1.46,14.67,5.39,10.03,13.85,4.62,9.24,0.0213,0.0243,0.0247
170,20,CBP_1_CHRB_OHIO,2.084294839,0.280198398,Type6,rhomboidea,3.52,1.66,13.36,13.09,OH,Ohio_Valley,,,"Oberlin, Lorain County, Ohio",41.29,-82.22,#N/A,,#N/A,#N/A,#N/A,#N/A,#N/A,#N/A,#N/A,#N/A,#N/A,#N/A,#N/A,#N/A,#N/A,#N/A,#N/A,#N/A,#N/A,#N/A
171,261,CBP_2_HAR_FLOR,4.863184458,0.27954277,Type6,rhomboidea,6.78,1.06,16.17,15.72,FL,Southeast,,,,#N/A,#N/A,#N/A,,#N/A,#N/A,#N/A,#N/A,#N/A,#N/A,#N/A,#N/A,#N/A,#N/A,#N/A,#N/A,#N/A,#N/A,#N/A,#N/A,#N/A,#N/A
172,67,CBP_1_HAR_UTAH,3.641381878,0.278932795,Type1a2,rhomboidea,6.79,1.42,18.26,17.53,UT,Southwest,millcreek,millcreek,"Millcreek, Salt Lake County, Utah",40.68,-111.86,1337.6,April,13,1967,0.773,12.7,2.14,7.42,7.41,-4.21,1.6,16.74,1.99,9.37,16.47,2.04,9.26,0.0158,0.0118,0.0142
173,173,CBP_11_JMUH_VIR,3.479883326,0.278477656,Type3,rhomboidea,2.17,0.51,6.18,6.12,VI,Southeast,harrisonburg,harrisonburg9,"Harrisonburg, Rockingham County, Virginia",38.43,-78.87,301,April,7,1976,0,16.8,0.45,8.63,10.65,-2.23,4.21,17.91,5.21,11.56,17.13,3.59,10.36,0.0184,0.0296,0.0279
174,492,CBP_7_MICH_MICH,5.582839306,0.277543433,Type3,rhomboidea,7.14,2.23,26.74,26.67,MI,Upper_Midwest,Ann Arbor,Ann Arbor,"Ann Arbor, Washtenaw County, Michigan",42.28,-83.74,230,May,7,1861,#N/A,#N/A,#N/A,#N/A,6.31,-3.18,1.56,10.8,1.79,6.3,#N/A,#N/A,#N/A,0.0231,0.0165,#N/A
175,322,CBP_3_EIU_ILL,3.398546407,0.27730031,Type6,rhomboidea,10.17,2.48,27.5,27.23,IL,Ohio_Valley,champaign,champaign,"Champaign, Champaign County, Illinois",40.12,-88.24,233,May,15,1966,0.007,18.18,5.28,11.73,8.61,-2.03,3.29,17.26,5.51,11.39,17,4.88,10.94,0.0183,0.0254,0.0237
176,460,CBP_6_DES_ARIZ,4.716214833,0.27719237,Type3,rhomboidea,2.74,0.43,6.52,6.38,AZ,Southwest,,,Apache County_Arizona_Greer,34.01,-109.46,2547,May,#N/A,1981,#N/A,6.46,29.1,4.71,#N/A,#N/A,#N/A,#N/A,#N/A,#N/A,#N/A,#N/A,#N/A,#N/A,#N/A,#N/A
177,105,CBP_1_NY_ARIZ,2.94465736,0.276902846,Type3,rhomboidea,3.13,0.81,8.75,8.69,AZ,Southwest,cottonwood,cottonwood,Yavapai County_Arizona_Cottonwood,34.69,-111.05,1236,February,28,2010,0.741,5.81,-2.71,1.55,13.63,-1.33,6.15,18.51,2.71,10.61,16.79,3.5,10.15,0.2769,0.1778,0.2329
178,399,CBP_4_UGA_GEOR,2.613504186,0.275947377,Type3,rhomboidea,5.97,1.79,16.56,16.46,GA,Southeast,quitman,quitman2,"Quitman, Brooks County, Georgia",31.97,-83.56,57.9,April,17,1966,0,27,9.68,18.34,18.01,4.73,11.37,24.62,11.73,18.17,24.35,11.54,17.94,0.0349,0.0336,0.0357
179,263,CBP_2_HAR_OKLA,2.668437311,0.275262689,Type3,rhomboidea,5.04,1.88,1.74,17.3,OK,South,sulphur,sulphur,"Sulphur, Murray County, Oklahoma",34.51,-96.97,312,March,25,1936,0,22.78,7,14.89,15.77,2.34,9.06,22.54,9.75,16.15,24.42,10.18,17.3,0.0175,0.0317,0.0222
180,439,CBP_5_MARY_MARY,3.152829831,0.274852761,Type3,rhomboidea,3.95,1.28,12.49,12.18,MD,Northeast,reistertown,reistertown,Baltimore County_Maryland_Reistertown,39.47,-76.83,219,April,26,1980,1.96,10.456,-6.05,4.926,10.36,-0.45,4.96,17.73,6.5,12.12,17.81,6.99,12.4,0.0219,0.0364,0.0257
181,479,CBP_7_BALT_MARY,4.252879065,0.273773643,Type3,rhomboidea,3.78,0.78,9.24,9.09,MD,Northeast,townson,townson3,Baltimore County_Maryland_Towson,39.4,-76.57,151,April,29,1981,2.416,10.596,3.2,5.458,10.41,-1.01,4.7,18.92,6.83,12.87,18.58,6.96,12.77,0.0189,0.0222,0.0242
182,413,CBP_43_WIS_WIS,3.152210497,0.273641985,Type3,rhomboidea,3.95,1.2,11.1,10.8,WI,Upper_Midwest,albany,albany,"Albany, Green County, Wisconsin",42.71,-89.44,245,May,14,1965,0,28,10.09,19.04,3.7,-6.38,-1.34,3.7,-6.38,-1.34,3.7,-6.38,-1.34,0.0193,0.0193,0.0193
183,371,CBP_4_BALT_MARY,2.781799702,0.273433203,Type3,rhomboidea,8.07,2.98,22.68,22.59,MD,Northeast,owingmills,owingmills,Baltimore County_Maryland_Owing Mills,39.42,-76.78,152,June,23,1977,3.506,10.456,-2.6,5.098,15.29,2.8,9.04,17.48,5.51,11.5,19.77,8.67,14.22,0.021,0.027,0.0364
184,211,CBP_15_WIS_WIS,4.210071636,0.271346689,Type3,rhomboidea,4.21,0.68,11.16,10.79,WI,Upper_Midwest,wentbend,wentbend,"Went Bend, Waukesha County, Wisconsin",42.92,-88.47,969,May,10,1969,0.196,12.74,3.13,7.93,4.43,-5.47,-0.52,4.43,-5.47,-0.52,4.43,-5.47,-0.52,0.0156,0.0156,0.0156
185,203,CBP_14_CSCN_IDA,3.727371713,0.269870211,Type6,heteris,3.77,1.02,8.24,8.24,NE,Northern_Rockies_and_Plains,mullen,mullen2,Hooker County_Nebraska_Mullen,42.04,-101.05,979,May,29,1986,0.423,18.87,6.5,12.68,8.75,-4.05,2.35,14.83,1.01,7.92,16.41,2.21,9.31,0.0161,0.0165,0.0188
186,143,CBP_1_UWFP_ALA,2.976442831,0.269161808,Type3,rhomboidea,11.17,2.61,33.02,32.9,AL,Southeast,mobile,mobile2,"Mobile, Mobile County, Alabama",30.7,-88.04,3,January,15,2012,0,17.04,0.63,8.83,25.64,13.24,19.44,26.19,14.05,20.12,25.98,14.53,20.26,0.0324,0.0344,0.0501
187,23,CBP_1_COLO_OKLA,4.514628311,0.26913428,Type6,rhomboidea,5.86,1.32,14.82,14.68,OK,South,stillwater,stillwater,"Stillwater, Payne County, Oklahoma",36.12,-97.06,273,April,10,1940,1.728,19.18,11.28,15.23,12.92,-0.49,6.21,23.34,9.19,16.27,21.44,8.49,14.97,0.014,0.0186,0.0253
188,441,CBP_5_MOR_ILL,2.867136016,0.268756855,Type3,rhomboidea,8.4,2.95,28.95,28.25,IL,Ohio_Valley,dekalb,dekalb,"DeKalb, DeKalb County, Illinois",41.93,-88.76,268,May,10,1895,#N/A,#N/A,#N/A,#N/A,8.07,-2.81,2.63,14.66,3.32,8.99,18.16,6.23,12.19,0.0144,0.0202,0.021
189,308,CBP_27_WIS_WIS,2.869373801,0.268377413,Type3,rhomboidea,4.2,1.3,12.7,12.3,WI,Upper_Midwest,newlondon,newlondon2,"New London, Outagamie County, Wisconsin",44.33,-88.64,234,June,8,1955,0.54,12.53,4.44,8.49,24.59,11.96,18.28,24.59,11.96,18.28,24.59,11.96,18.28,0.0265,0.0265,0.0265
190,152,CBP_10_BRIT_Tex,4.339617325,0.268283181,Type3,rhomboidea,4.63,1.25,14.14,13.75,TX,South,Dallas,Dallas1,"Dallas, Texas",32.78,-96.81,128,March ,27,1973,0.278,26.03,9.72,17.88,16.26,4.89,10.58,24.7,12.59,18.65,24.29,12.73,18.51,0.0287,0.022,0.0354
191,425,CBP_5_BRY_UTAH,3.144018619,0.267869382,Type3,rhomboidea,3.77,1.21,11.56,11.33,UT,Southwest,provo,provo2,"Provo, Utah County, Utah",40.25,-111.65,301,April,21,1966,0,12.13,-2.21,4.96,8.04,-5.84,1.1,15.58,0.05,7.81,16.9,0.42,8.66,0.0148,0.0134,0.0109
192,22,CBP_1_COLO_OHIO,3.046689133,0.267312766,Type3,rhomboidea,3.36,1,9.47,9.2,OH,Ohio_Valley,oxford,oxford,"Oxford, Butler County, Ohio",39.48,-84.69,281,May,4,1958,1.53,22.48,11.71,17.1,8.29,-1.75,3.27,17.67,5.91,11.79,16.67,4.94,10.8,0.0247,0.0292,0.0301
193,274,CBP_2_NCU_GEOR,4.539883381,0.266187479,Type3,rhomboidea,4.87,1,13.03,12.85,GA,Southeast,cochran,cochran1,"Cochran, Bleckley County, Georgia",32.39,-83.35,104,March,25,1972,0.187,15.77,6.33,11.05,20.43,7.12,13.78,25.5,12.15,18.82,25.4,11.59,18.5,0.0349,0.0376,0.033
194,122,CBP_1_TENN_FLOR,2.665278658,0.265893099,Type3,rhomboidea,4.93,1.53,16.07,15.84,FL,Southeast,tallahassee,tallahassee5,"Tallahassee, Leon County, Florida",30.46,-84.25,61,March,14,1957,0.036,26.04,15.24,20.64,22.76,10.11,16.43,26.72,14.12,20.42,26.5,14.67,20.59,0.0138,0.028,0.0446
195,466,CBP_6_JMUH_VIR,2.625812559,0.265490096,Type3,rhomboidea,4.45,1.57,14.61,14.39,VI,Southeast,winchester,winchester4,"Winchester, Shenandoah County, Virginia",38.87,-78.58,301,May,5,2011,0.802,16.69,4.38,10.53,10.02,-1.34,4.34,18.83,6.39,12.61,18.76,6.81,12.79,0.0353,0.0302,0.0352
196,249,CBP_2_EIU_INDI,3.744623826,0.26515345,Type3,rhomboidea,8.77,1.96,21.09,21.02,IN,Ohio_Valley,rockville,rockville,"Rockville, Parke County, Indiana",39.76,-87.23,217,October,25,1980,1.029,12.78,1.42,7.18,27.42,13.96,20.69,17.24,5.24,11.24,16.93,5.05,10.99,0.0296,0.0261,0.0238
197,372,CBP_4_BRIT_OKLA,2.555554909,0.264052561,Type3,rhomboidea,4.68,1.74,15.26,14.79,OK,South,peggs,peggs,"Peggs, Mayes County, Oklahoma",36.08,-95.1,283,May,11,1958,0.094,27.38,9.44,18.41,13.33,1.63,7.48,21.02,8.92,14.97,21.17,8.97,15.07,0.0278,0.037,0.0299
198,248,CBP_2_EIU_ILL,2.709112071,0.263675609,Type3,rhomboidea,2.64,0.66,8.6,8.45,IL,Ohio_Valley,lacon,lacon,"Lacon, Marshall County, Illinois",41.02,-89.41,148,April,27,1981,0.025,28.89,10.9,19.86,8.11,-3.36,2.38,16.94,4.6,10.77,16.26,4.29,10.28,0.0191,0.0266,0.0296
199,149,CBP_1_WGC_WAS,3.71453206,0.262854963,Type3,rhomboidea,4.03,1.03,10.9,10.53,WA,Northwest,cheney,cheney,Spokane County_Washington_Cheney,47.49,-117.58,2300,April,15,1965,0.026,19.8,4.53,12.17,4.91,-3.23,0.84,14.49,2.33,8.41,15.64,3.26,9.45,0.0191,0.0133,0.0101
200,318,CBP_3_CAL_MICH,4.01738399,0.262796665,Type3,rhomboidea,6,1.1,16.38,16.15,MI,Upper_Midwest,Grand Rapids,Grand Rapids2,"Grand Rapids, Kent County, Michigan",42.93,-85.59,84,May,17,1965,0.02,17.46,7.46,12.46,5.28,-5.18,0.05,14.98,2.98,8.98,12.8,2.07,7.44,0.0258,0.0234,0.0271
201,18,CBP_1_CAL_WAS,4.636168367,0.262121031,Type3,rhomboidea,2.82,0.58,6.62,6.53,WA,Northwest,wallawalla,,Walla Walla County_Washington_Walla Walla,46.07,-118.29,381,March,21,1963,0,19.63,8.78,14.21,9.52,0.04,4.78,16.95,4.56,10.75,16.64,4.45,10.55,0.0188,0.0161,0.0126
202,359,CBP_30_WIS_WIS,4.308202293,0.260435593,Type3,rhomboidea,7.95,1.74,19.68,19.53,WI,Upper_Midwest,wausau,wausau,"Wausau, Marathon County, Wisconsin",45.04,-89.52,969,July,18,1961,0.021,27.87,14.25,21.06,13.68,0.65,7.16,13.68,0.65,7.16,13.68,0.65,7.16,0.0225,0.0225,0.0225
203,231,CBP_19_BRIT_Tex,4.348301653,0.260155777,Type3,rhomboidea,3.27,0.93,10.3,10.02,TX,South,Franklin,Franklin2,"Franklin, Texas",31.03,-96.49,137,February,20,1982,0,24.23,8.13,16.18,21.68,8.76,15.22,25.69,13.29,19.49,25.74,13.12,19.43,0.0249,0.027,0.0226
204,113,CBP_1_OCU_OKLA,2.97434816,0.259989663,Type3,rhomboidea,4.87,1.44,15.11,14.96,OK,South,oklahomacity,oklahomacity2,"Oklahoma CIty, Oklahoma County, Oklahoma",35.48,-97.51,365,March,30,1992,0,14.4,5.85,10.13,16.23,4.37,10.3,23.26,11.24,17.25,22.22,10.18,16.2,0.0233,0.03,0.0292
205,395,CBP_4_NY_UTAH,2.700004204,0.25940319,Type3,rhomboidea,3.55,0.79,12.19,12.11,UT,Southwest,pleasantgrove,pleasantgrove,"Pleasant Grove, Utah County, Utah",40.39,-111.76,1388.06,April,14,2005,0,12.98,-2.12,5.43,6.23,-4.05,1.09,14.5,2.24,8.37,14.61,2.2,8.41,0.028,0.0227,0.0227
206,388,CBP_4_HUNT_INDI,6.955632895,0.259191655,Type3,rhomboidea,6.19,0.81,12.85,12.83,IN,Ohio_Valley,huntington,huntington2,"Huntington, Huntington County, Indiana",40.88,-85.5,228,April,28,1946,0.038,15.39,-1.36,7.01,8.49,-2.38,3.05,16.38,4.57,10.47,18.29,5.29,11.79,0.0159,0.0268,0.022
207,228,CBP_18_BRIT_Tex,3.008115033,0.256984503,Type3,rhomboidea,13.96,2.95,1.15,1.22,TX,South,Arlington,Arlington5,"Arlington, Texas",32.74,-97.11,183,February ,22,1973,0.195,11.83,4.76,8.24,18.08,6.95,12.52,24.46,12.22,18.34,23.85,12.32,18.08,0.0253,0.0196,0.0311
208,419,CBP_49_WIS_WIS,4.892091666,0.25559906,Type3,rhomboidea,4.65,0.85,10.75,10.7,WI,Upper_Midwest,madison,madison6,"Madison, Dane County, Wisconsin",43.07,-89.4,258,June,16,1953,0,16.6,8.08,12.34,9.35,-0.65,4.35,9.35,-0.65,4.35,9.35,-0.65,4.35,0.0194,0.0194,0.0194
209,223,CBP_17_SAT_Tex,2.528103149,0.255358155,Type6,rhomboidea,31.38,6.32,3.34,3.38,TX,South,Eden,Eden,"Eden, Texas",31.21,-99.85,622,February ,10,2016,0,22.6,-2.02,10.29,22.66,7.25,14.96,25.55,11.16,18.35,25.7,11.88,18.79,0.0236,0.0267,0.0293
210,264,CBP_2_HAR_UTAH,4.587367598,0.255307445,Type3,rhomboidea,3.88,1,9.55,9.5,UT,Southwest,murray,murray,"Murray, Salt Lake County, Utah",40.67,-111.89,1311,May,25,1917,0,27.56,10.66,19.11,5.49,-7.34,-0.93,13.72,-0.86,6.43,15.1,0.4,7.75,0.0203,0.0158,0.015
211,407,CBP_4_VSC_GEOR,3.053097346,0.253972099,Type3,rhomboidea,4.97,1.03,14.94,14.78,GA,Southeast,quitman,quitman3,"Quitman, Brooks County, Georgia",31.97,-83.56,57.9,April,17,1966,0,27,9.68,18.34,18.01,4.73,11.37,24.62,11.73,18.17,24.35,11.54,17.94,0.0349,0.0336,0.0357
212,112,CBP_1_OBI_UTAH,4.600960824,0.253083061,Type6,rhomboidea,6.38,1.19,16.33,16.1,UT,Southwest,northlogan,northlogan1,"North Logan, Cache County, Utah",41.77,-111.8,1430,May,22,1964,0,25.28,9.33,17.31,4.86,-8,-1.57,14.83,-0.35,7.24,14.34,-0.98,6.68,0.0106,0.0119,0.0125
213,423,CBP_5_BRIT_Tex,3.156239236,0.251301959,Type1a2,rhomboidea,4.82,1.76,14.54,14.17,TX,South,Fannin,Fannin,"Fannin, Texas",28.7,-97.24,42,April ,5,1978,0,27.38,20.43,23.9,20.23,7.22,13.73,26.98,14.68,20.83,26.65,14.58,20.61,0.0142,0.0235,0.0238
214,101,CBP_1_NHMU_UTAH,2.965846781,0.251292746,Type3,rhomboidea,3.56,1.17,10.94,10.78,UT,Southwest,saltlakecity,saltlakecity2,"Salt Lake City, Salt Lake County, Utah",40.67,-112.09,1425.76,May,6,1995,0.773,12.7,2.14,7.42,8.41,-3.04,2.68,16.93,3,9.97,16.45,2.6,9.53,0.0297,0.022,0.0236
215,436,CBP_5_HUNT_INDI,4.885172983,0.250585331,Type3,rhomboidea,6.4,1.15,15.45,15.32,IN,Ohio_Valley,huntington,huntington3,"Huntington, Huntington County, Indiana",40.88,-85.5,228,June,26,1969,0,31.3,18.33,24.82,11.73,0.32,6.03,15.46,4.03,9.75,15.41,4.04,9.73,0.0285,0.0281,0.0277
216,34,CBP_1_EIU_INDI,3.359858644,0.249761407,Type3,rhomboidea,7.66,1.77,22.74,22.53,IN,Ohio_Valley,sulivan,sulivan,"Sullivan, Sullivan County, Indiana",39.05,-87.42,161,April,17,1974,0.261,15.55,0.65,8.1,9.82,-0.75,4.54,18.95,7.42,13.19,18.16,6.61,12.38,0.034,0.0339,0.0353
217,93,CBP_1_MUSK_MICH,2.526401491,0.248852188,Type3,rhomboidea,4.33,1.69,15.13,14.97,MI,Upper_Midwest,,,,#N/A,#N/A,#N/A,September,#N/A,1940,#N/A,#N/A,#N/A,#N/A,#N/A,#N/A,#N/A,#N/A,#N/A,#N/A,#N/A,#N/A,#N/A,#N/A,#N/A,#N/A
218,133,CBP_1_ULA_WIS,3.938825205,0.248761354,Type3,rhomboidea,2.14,0.51,5.8,5.66,WI,Upper_Midwest,madison,madison1,"Madison, Dane County, Wisconsin",43.05,-89.4,239,May,16,1978,0,16.6,8.08,12.34,2.65,-8.99,-3.17,2.65,-8.99,-3.17,2.65,-8.99,-3.17,0.0179,0.0179,0.0179
219,27,CBP_1_CSCN_UTAH,3.272077625,0.247921456,Type3,rhomboidea,4.22,1.24,12.46,12.29,UT,Southwest,eureka,eureka2,"Eureka, Toole County, Utah",40.02,-112.41,1813.97,May,24,1995,1.078,17.79,6.9,12.34,10.88,-2.46,4.21,18.86,3.4,11.13,18.41,2.12,10.27,0.018,0.014,0.012
220,324,CBP_3_FLAS_FLOR,3.391651394,0.247502508,Type3,rhomboidea,9.45,2.55,26.52,26.24,FL,Southeast,gainesville,gainesville2,"Gainesville, Alachua, Florida",29.65,-82.32,54,March,3,1979,0,26.95,12.8,20.43,23.37,8.73,16.05,27.83,13.95,20.89,26.72,13.76,20.24,0.0295,0.0401,0.0459
221,24,CBP_1_COLO_UTAH,3.876280864,0.247460597,Type3,rhomboidea,4.27,0.93,12.18,11.93,UT,Southwest,cache,cache,"Providence, Cache County, Utah",41.69,-111.8,1428.8,May,7,1967,0,19.31,4.8,12.05,6.22,-5.3,0.46,16.14,0.99,8.57,16.06,1.35,8.71,0.0173,0.0108,0.013
222,4,CBP_1_amich_MICH,5.561771613,0.246668664,Type1a2,rhomboidea,6.33,0.98,16.52,16.44,MI,Upper_Midwest,Hart,Hart," Hart, Oceana County, Michigan",43.57,-86.45,969,May,26,2003,0,21,7.12,14.06,6.13,-2.23,1.95,15.75,5.21,10.48,13.62,2.32,7.97,0.0247,0.0221,0.0216
223,110,CBP_1_NY_UTAH,2.961774455,0.2464822,Type3,rhomboidea,6.84,1.55,20.48,20.27,UT,Southwest,saltlakecity,saltlakecity3,"Salt Lake City, Salt Lake County, Utah",40.76,-111.89,1307.2,June,10,1880,#N/A,#N/A,#N/A,#N/A,#N/A,#N/A,#N/A,#N/A,#N/A,#N/A,#N/A,#N/A,#N/A,#N/A,#N/A,#N/A
224,281,CBP_2_OCU_OKLA,4.161441155,0.24561237,Type3,rhomboidea,3.35,0.76,8.78,8.61,OK,South,oklahomacity,oklahomacity3,"Oklahoma CIty, Oklahoma County, Oklahoma",35.48,-97.51,365,March,29,2001,0.029,10.28,3.6,6.94,11.87,0.99,6.43,20.78,8.78,14.78,22.09,9.95,16.02,0.0252,0.0261,0.0205
225,386,CBP_4_GMUF_VIR,2.903524292,0.245471781,Type1a2,rhomboidea,3.8,1.32,11.45,11.34,VI,Southeast,charoltesville,charoltesville2,"Charlottesville, Madison County, Virginia",38.28,-78.14,301,May,3,1978,0,19.54,4.24,11.89,8.85,-2.1,3.38,18.13,6.43,12.28,18.31,6.77,12.54,0.0333,0.0292,0.0306
226,303,CBP_22_WIS_WIS,3.590886023,0.244599822,Type3,rhomboidea,4.65,0.85,13.15,12.8,WI,Upper_Midwest,,,"Appleton, Outagamie County, Wisconsin",44.26,-88.42,241,May-July,#N/A,#N/A,#N/A,#N/A,#N/A,#N/A,#N/A,#N/A,#N/A,#N/A,#N/A,#N/A,#N/A,#N/A,#N/A,#N/A,#N/A,#N/A
227,442,CBP_5_NY_UTAH,3.164871945,0.243906056,Type3,rhomboidea,6.67,1.44,20.29,20.04,UT,Southwest,saltlakecity,saltlakecity4,"Salt Lake City, Salt Lake County, Utah",40.76,-111.82,1532.16,May,4,1995,0.074,18.3,2.16,10.23,8.33,-3.12,2.6,16.98,3.03,10,16.45,2.6,9.53,0.0293,0.0217,0.0236
228,452,CBP_5_VCU_VIR,4.186140043,0.243344241,Type3,rhomboidea,4.22,1.02,12.37,12.17,VI,Southeast,charoltesville,charoltesville1,"Charlotesville, Goochland County, Virginia",38.03,-78.51,149,April,29,1971,0,21.24,8.05,14.65,11.96,-0.77,5.59,19.84,6.84,13.34,19.14,6.8,12.97,0.0291,0.0266,0.0345
229,458,CBP_6_BRY_UTAH,2.87995987,0.2424161,Type3,rhomboidea,4.85,1.61,16.61,16.24,UT,Southwest,provo,provo3,"Provo, Utah County, Utah",40.25,-111.65,1368,April,28,1938,0,23.28,0.89,12.09,8.86,-4.01,2.42,17.29,1.83,9.56,16.23,1.21,8.72,0.0175,0.0144,0.0149
230,95,CBP_1_NCSC_VIR,3.254610502,0.242090869,Type3,rhomboidea,4.97,1.55,15.73,15.45,VI,Southeast,norfolk,norfolk1,"Norfolk City, , Virginia",36.89,-76.3,301,March,31,1975,0.372,13.39,2.84,8.05,14.68,3.98,9.33,20.45,10.35,15.4,20.95,10.93,15.94,0.0308,0.0348,0.0368
231,457,CBP_6_BRIT_Tex,4.58119087,0.24184557,Type3,rhomboidea,9.56,2.3,27.32,26.65,TX,South,Waxahachie,Waxahachie,"Waxahachie, Texas",32.39,-96.85,169,February ,22,1973,0.195,11.83,4.76,8.24,18.68,7.19,12.93,24.85,12.47,18.66,24.27,12.47,18.37,0.027,0.0206,0.035
232,116,CBP_1_PH_MARY,2.944544917,0.241344462,Type6,rhomboidea,7.4,2.07,23.51,23.35,MD,Northeast,silverspring,silverspring1,Montgomery County_Maryland_Silver Spring,39,-77.04,104,April,10,1910,2.78,11.195,3.31,5.763,10.46,-0.61,4.93,18.16,6.59,12.38,18.64,7.19,12.92,0.0196,0.023,0.0282
233,12,CBP_1_BOON_INDI,2.224705529,0.240148394,Type6,rhomboidea,5.81,2.19,18.4,18.31,IN,Ohio_Valley,bedford,bedford1,"Bedford, Lawrence County, Indiana",38.87,-86.51,209,May,4,1951,0.085,27.09,9.81,18.45,9.07,-2.37,3.35,17.89,5.41,11.65,18.51,5.73,12.12,0.033,0.0351,0.0332
234,313,CBP_3_BALT_MARY,2.537371959,0.239963549,Type3,rhomboidea,4.11,1.57,14.39,14.11,MD,Northeast,townson,townson1,Baltimore County_Maryland_Towson,39.4,-76.6,151,April,30,1980,3.353,24.734,14.651,19.693,10.6,0.32,5.46,17.83,7.2,12.52,19.47,9.28,14.37,0.0242,0.0367,0.0368
235,178,CBP_11_URV_VIR,3.619426915,0.239951779,Type3,rhomboidea,4.57,0.89,12.09,11.89,VI,Southeast,richmond,richmond9,"Richmond City, , Virginia",37.54,-77.43,50.7,April ,4,1931,#N/A,#N/A,#N/A,#N/A,#N/A,#N/A,#N/A,#N/A,#N/A,#N/A,#N/A,#N/A,#N/A,#N/A,#N/A,#N/A
236,262,CBP_2_HAR_IDA,4.167839922,0.239115451,Type6,rhomboidea,4.41,1.02,9.55,9.55,NE,Northern_Rockies_and_Plains,brokenbow,brokenbow,Custer County_Nebraska_Broken Bow,41.41,-99.64,755,May,10,1927,0,22.2,1.1,11.65,8.8,-2.52,3.14,16.64,2.6,9.62,16.13,2.22,9.18,0.0131,0.0179,0.0155
237,100,CBP_1_NCU_VIR,2.685289065,0.238413863,Type3,rhomboidea,1.9,0.56,6.18,6.05,VI,Southeast,richmond,richmond1," Richmond, New Kent County, Virginia",37.54,-77.43,50.7,May,9,1970,0,32.22,14.58,23.4,11.37,-0.34,5.51,20.01,8.3,14.15,20.24,8.37,14.3,0.0273,0.0338,0.0225
238,382,CBP_4_EIU_ILL,2.204603312,0.237481409,Type3,rhomboidea,5.28,2.41,18.89,18.67,IL,Ohio_Valley,charleston,charleston1,"Charleston, Coles County, Illinois",39.49,-88.19,212,May,10,1965,0.394,24.15,15.03,19.59,8.82,-1.99,3.41,18.2,5.72,11.96,18.34,6.26,12.3,0.0244,0.0207,0.0263
239,285,CBP_2_SAT_Tex,2.251820234,0.235984193,Type3,rhomboidea,3.15,0.87,7.91,7.71,TX,South,Sonora,Sonora1,"Sonora, Texas",30.57,-100.64,649,March ,15,1992,0,#N/A,#N/A,#N/A,19.61,4.67,12.14,26.06,9.35,17.7,26.45,10.32,18.39,0.0159,0.0175,0.0161
240,15,CBP_1_BRY_UTAH,3.300687925,0.235461035,Type6,rhomboidea,3.51,0.71,10.11,10,UT,Southwest,eureka,eureka1,"Eureka, Toole County, Utah",39.93,-112.72,1981,June,14,2019,0.053,26.45,9.92,18.18,10.89,-1.52,4.69,16.4,2.12,9.26,16.1,1.72,8.91,0.0234,0.0146,0.0144
241,463,CBP_6_FMNH_ILL,4.21474435,0.235459218,Type3,rhomboidea,11.83,2,34.27,33.93,IL,Ohio_Valley,chicago,chicago3,"Chicago, Cook County, Illinois",41.74,-87.55,182,May,12,1898,#N/A,#N/A,#N/A,#N/A,6.6,-3.61,1.5,15.61,3.76,9.68,14.94,3.82,9.38,0.0264,0.024,0.0299
242,481,CBP_7_BRIT_Tex,3.260731735,0.235447437,Type6,rhomboidea,3.57,0.96,12.5,12,TX,South,Grapevine,Grapevine,"Grapevine, Texas",32.93,-97.08,194,April ,29,1947,0.006,27,20.12,23.56,17.2,5.52,11.36,23.36,11.8,17.58,23.88,12.04,17.96,0.0316,0.0298,0.0242
243,28,CBP_1_DES_ARIZ,3.267469662,0.234921323,Type3,rhomboidea,2.13,0.63,6.35,6.15,AZ,Southwest,sunflower,sunflower1,"Gila County_Arizona_Chandler, Sunflower",33.87,-111.47,1249,April,3,1990,0.024,25.07,8.71,16.89,20.33,4.4,12.37,28.95,12.11,20.53,28.03,12.16,20.1,0.0912,0.0738,0.1109
244,192,CBP_13_BRIT_Tex,5.080908648,0.234220533,Type3,rhomboidea,5.49,1.01,13.96,13.55,TX,South,FortWorth,FortWorth5,"Fort Worth, Texas",32.73,-97.32,198,February ,25,1974,0,9.8,-6.68,1.56,17.62,5.89,11.75,26.34,14.08,20.21,26.16,13.28,19.72,0.0258,0.0198,0.0178
245,292,CBP_2_URV_VIR,2.946003764,0.233928348,Type3,rhomboidea,6,1.82,17.05,16.93,VI,Southeast,middlesexcounty,middlesexcounty,". Middlesex County, Virginia",37.63,-76.55,9,April,29,1932,0,25.73,6.1,15.92,16.48,3.4,9.94,22.32,9.7,16.01,22.28,9.61,15.94,0.0254,0.0345,0.0303
246,97,CBP_1_NCU_ALA,4.271783304,0.233337795,Type3,rhomboidea,4.37,0.87,12.84,12.39,AL,Southeast,lauderdalecounty,lauderdalecounty,", Lauderdale County, Alabama",34.87,-87.59,475,March,26,1969,0,7.88,-0.12,3.88,14.31,1.65,7.98,22.21,9.01,15.61,21.71,8.28,15,0.0341,0.035,0.0406
247,462,CBP_6_DOV_MARY,3.864684557,0.232953949,Type3,rhomboidea,12.19,0.86,9.19,9.07,MD,Northeast,mandelasprings,mandelasprings,Wicomico County_Maryland_Mandela Springs,38.47,-75.71,8,May,1,2007,1.796,10.983,-13.13,4.835,12.36,0.78,6.57,19.95,8.44,14.2,19.16,7.16,13.16,0.0274,0.038,0.026
248,94,CBP_1_NCSC_FLOR,2.312126952,0.232171194,Type6,rhomboidea,5.71,2.37,20.71,20.46,FL,Southeast,tallahassee,tallahassee4,"Tallahassee, Leon County, Florida",30.46,-84.25,61,March,14,1957,0.036,26.04,15.24,20.64,22.76,10.11,16.43,26.72,14.12,20.42,26.5,14.67,20.59,0.0138,0.028,0.0446
249,299,CBP_2_WIS_WIS,3.03834422,0.231212556,Type3,rhomboidea,8.7,2.2,27.45,27.1,WI,Upper_Midwest,,,Wisconsin,#N/A,#N/A,#N/A,June,8,1888,#N/A,#N/A,#N/A,#N/A,#N/A,#N/A,#N/A,#N/A,#N/A,#N/A,#N/A,#N/A,#N/A,#N/A,#N/A,#N/A
250,432,CBP_5_FMNH_ILL,3.362059819,0.230109581,Type3,rhomboidea,12.8,3.93,40.08,39.73,IL,Ohio_Valley,chicago,chicago2,"Chicago, Cook County, Illinois",41.74,-87.55,182,June,22,1960,0.136,24.59,16.81,20.7,9.3,1.06,5.18,14.21,5.55,9.88,14.36,5.48,9.92,0.026,0.0268,0.0209
251,291,CBP_2_UNA_ALA,6.269159935,0.229809118,Type3,rhomboidea,9.21,0.89,22,21.71,AL,Southeast,moulton,moulton,"Moulton, Lawrence County, Alabama",34.43,-87.29,670,January,19,2000,0,11.63,2.07,6.85,23.56,8.55,16.05,23.61,9.99,16.8,22.59,9.25,15.92,0.0168,0.0325,0.0317
252,454,CBP_5_VSC_GEOR,3.80035165,0.2295535,Type3,rhomboidea,7.7,1.58,21.55,21.18,GA,Southeast,colquit,colquit,"Colquit, Miller County, Georgia",31.17,-84.73,50.9,March,13,1976,0.062,23.58,13.33,18.5,21.12,6.69,13.91,25.95,12.83,19.39,25.41,11.38,18.39,0.0311,0.0482,0.0415
253,294,CBP_2_USF_FLOR,3.722138601,0.229241081,Type3,rhomboidea,6.69,1.53,19.55,19.33,FL,Southeast,tallahassee,tallahassee6,"Tallahassee, Leon County, Florida",30.46,-84.25,61,March,14,1957,0.036,26.04,15.24,20.64,22.76,10.11,16.43,26.72,14.12,20.42,26.5,14.67,20.59,0.0138,0.028,0.0446
254,334,CBP_3_IND_INDI,4.082425116,0.228921366,Type3,rhomboidea,6.53,1.12,18.35,18.06,IN,Ohio_Valley,morristown,morristown,"Morristown, Shelby County, Indiana",39.67,-85.7,254,May,7,1913,#N/A,#N/A,#N/A,#N/A,9.78,-1.74,4.02,18.22,6,12.11,17.98,5.77,11.88,0.0418,0.0327,0.0349
255,182,CBP_12_BRIT_Tex,2.832332237,0.228893968,Type6,rhomboidea,6.05,1.74,21.87,21.24,TX,South,FortWorth,FortWorth8,"Fort Worth, Texas",32.73,-97.32,198,April ,6,1999,0,25.83,8.76,17.3,19.53,7.86,13.7,24.69,11.9,18.3,24.15,12.05,18.1,0.0277,0.023,0.0219
256,361,CBP_32_WIS_WIS,2.508258249,0.228130751,Type3,rhomboidea,7.21,2.89,22.16,21.89,WI,Upper_Midwest,saukcity,saukcity2,"Sauk City, Sauk County, Wisconsin",43.27,-89.72,266,May,15,1937,0.01,13.66,2.66,8.16,4.05,-7.48,-1.72,4.05,-7.48,-1.72,4.05,-7.48,-1.72,0.0163,0.0163,0.0163
257,349,CBP_3_UNA_ALA,3.083920896,0.227356492,Type1a2,rhomboidea,2.85,0.93,8.48,8.26,AL,Southeast,tuscaloosa,tuscaloosa4,"Tuscaloosa, Tuscaloosa County, Alabama",33.19,-87.57,68,February,22,1955,4.18,6,1.34,3.67,20.43,6.06,13.24,25.31,10.85,18.08,24.39,10.77,17.58,0.0311,0.0268,0.0316
258,134,CBP_1_UNA_ALA,2.635317367,0.226262896,Type3,rhomboidea,3.54,1.18,12.14,11.86,AL,Southeast,tuscumbia,tuscumbia,"Tuscumbia, Colbert County, Alabama",34.73,-87.7,144,March,28,1973,0,20.56,6.83,13.69,#N/A,#N/A,#N/A,22.39,9.56,15.97,23.5,10.51,17,#N/A,0.0518,0.0519
259,46,CBP_1_FSU_GEOR,2.751686853,0.226063628,Type1a1,rhomboidea,4.47,1.41,15.09,14.94,GA,Southeast,darien,darien1,"Darien, McIntosh County, Georgia",31.38,-81.44,9.1,March,24,1958,0.998,16.77,9.86,13.31,18.13,6.62,12.37,24.06,13.28,18.67,24.27,13.1,18.69,0.029,0.045,0.0308
260,391,CBP_4_MARY_MARY,3.519126511,0.225235337,Type3,rhomboidea,7.02,1.87,21.27,20.98,MD,Northeast,collegepark,collegepark,Prince Georges County_Maryland_College Park,38.98,-76.94,21,April,18,1990,2.974,11.971,-1.26,5.922,11.15,-0.46,5.34,19.2,7.55,13.37,20.85,8.38,14.61,0.0239,0.0345,0.0245
261,424,CBP_5_BRIT_Tex,3.671296907,0.225018581,Type1a2,rhomboidea,4.97,1.35,13.98,13.67,TX,South,Fannin,Fannin,"Fannin, Texas",28.7,-97.24,42,April ,5,1978,0,20.6,3.9,12.25,20.23,7.22,13.73,26.98,14.68,20.83,26.65,14.58,20.61,0.0142,0.0235,0.0238
262,526,CBP_9_HARV_VIR,2.767288337,0.224947344,Type3,rhomboidea,3.72,1.05,12.76,12.67,VI,Southeast,franlkin,franlkin,"Franklin, Southampton County, Virginia",36.72,-77.07,2069,April,6,1939,0.71,20,6.7,13.35,15.86,2.45,9.15,21.4,9.59,15.5,22.95,10.3,16.62,0.031,0.039,0.0398
263,273,CBP_2_MUHW_VIR,2.02422963,0.22481027,Type3,rhomboidea,6.14,1.95,19.28,20.29,VI,Southeast,lynchburg,lynchburg3,"Lynchburg, Campbell County, Virginia",37.23,-79.29,301,April,10,1984,0.498,12.22,1.12,6.67,10.65,0.12,5.38,18.62,7.28,12.95,19.56,8.25,13.91,0.043,0.0343,0.0315
264,421,CBP_5_BALT_MARY,2.141653739,0.224171021,Type3,rhomboidea,3.67,1.67,12.2,12.04,MD,Northeast,townson,townson2,Baltimore County_Maryland_Towson,39.4,-76.6,151,April,24,1980,1.839,12.002,13.64,6.683,10.4,0,5.2,17.91,7.2,12.56,19.98,9.38,14.68,0.0217,0.0359,0.032
265,271,CBP_2_MICH_MICH,3.315231736,0.222249507,Type3,rhomboidea,7.98,2.51,24.31,24.19,MI,Upper_Midwest,Fremont,Fremont,"Fremont, Oceana County, Michigan",43.47,-86.07,969,May,1,2006,0.594,18,11.56,14.78,4.31,-4.46,-0.07,13.9,2.7,8.3,14.16,3.86,9.01,0.0251,0.0254,0.0325
266,184,CBP_12_MICH_MICH,4.078295185,0.220943164,Type6,rhomboidea,6.87,1.64,20.11,20.04,MI,Upper_Midwest,Port Huron,Port Huron,"Port Huron, St. Clair County, Michigan",42.97,-82.42,184,June,20,1892,#N/A,#N/A,#N/A,#N/A,#N/A,#N/A,#N/A,#N/A,#N/A,#N/A,#N/A,#N/A,#N/A,#N/A,#N/A,#N/A
267,369,CBP_4_ACU_Tex,2.663353519,0.220016341,Type6,rhomboidea,3.17,1.33,11.82,11.2,TX,South,Abilene,Abilene5,"Abilene, Texas",32.45,-99.73,524,April ,5,1990,0.036,30,21.1,25.55,19.45,2.36,10.9,26.03,9.88,17.95,24.95,10.65,17.8,0.006,0.0162,0.0146
268,42,CBP_1_FLAS_OKLA,3.411323766,0.219358969,Type3,rhomboidea,3.36,1,9.69,9.62,OK,South,oklahomacity,oklahomacity1,"Oklahoma CIty, Oklahoma County, Oklahoma",35.48,-97.51,365,April,1,1937,0,20.55,4.7,12.63,12.36,-0.05,6.16,23.26,9.72,16.49,22.76,10.39,16.57,0.0064,0.0162,0.0169
269,430,CBP_5_EIU_ILL,3.23089209,0.218045581,Type3,rhomboidea,5.5,1.46,20.41,19.98,IL,Ohio_Valley,charleston,charleston2,"Charleston, Coles County, Illinois",39.49,-88.19,212,April,7,1946,0.026,18.33,1.13,9.73,10.08,-1.03,4.52,18.09,6.33,12.21,19.84,7.19,13.51,0.02,0.0314,0.029
270,83,CBP_1_MARY_MARY,3.39227352,0.217007834,Type6,rhomboidea,11.26,3.61,37.83,37.22,MD,Northeast,galestown,galestown,Dorchester County_Maryland_Galestown,38.57,-75.71,4,April,21,2015,2.391,11.148,-4.64,5.342,10.46,-0.26,5.1,19.23,8.18,13.71,20.32,8,14.16,0.0351,0.034,0.0323
271,385,CBP_4_FMNH_ILL,3.107018206,0.215400333,Type6,rhomboidea,6.46,1.39,21.43,21.09,IL,Ohio_Valley,,,Illinois,#N/A,#N/A,#N/A,,#N/A,#N/A,#N/A,#N/A,#N/A,#N/A,#N/A,#N/A,#N/A,#N/A,#N/A,#N/A,#N/A,#N/A,#N/A,#N/A,#N/A,#N/A
272,164,CBP_10_SAT_Tex,2.727846816,0.215044082,Type3,rhomboidea,4.61,1.65,18.1,17.31,TX,South,Bryan,Bryan1,"Bryan, Texas",30.67,-96.37,113,March ,8,1977,0,21.68,5.58,13.63,16.71,4.32,10.52,23.8,11.75,17.77,26.34,13.82,20.08,0.0301,0.0321,0.0203
273,348,CBP_3_ULA_WIS,3.824652844,0.214691402,Type3,rhomboidea,9.34,1.75,25.56,25.28,WI,Upper_Midwest,stevespoint,stevespoint,"Stevens Point, Portage County, Wisconsin",44.52,-89.57,331.9,October,19,1981,0.044,9.44,-4.73,2.36,24.49,12.28,18.38,24.49,12.28,18.38,24.49,12.28,18.38,0.0329,0.0329,0.0329
274,260,CBP_2_HAR_ALA,2.808809305,0.214168247,Type3,rhomboidea,4.67,1.33,14.22,13.78,AL,Southeast,tuscaloosa,tuscaloosa3,"Tuscaloosa, Tuscaloosa County, Alabama",33.19,-87.57,68,March,26,1955,0.217,25.32,-4.22,10.55,18.23,4.55,11.39,25.59,11.27,18.43,24.39,10.77,17.58,0.0361,0.0281,0.0316
275,224,CBP_17_WIS_WIS,1.88818921,0.213671323,Type3,rhomboidea,4.4,0.9,12.4,12.15,WI,Upper_Midwest,elkhom,elkhom,"Elkhorn, Walworth County, Wisconsin",42.72,-88.45,969,May,9,1938,0.115,11.95,2.75,7.35,5.15,-3.95,0.6,5.15,-3.95,0.6,5.15,-3.95,0.6,0.0214,0.0214,0.0214
276,145,CBP_1_VCU_VIR,3.877088647,0.213581449,Type3,rhomboidea,6.09,1.16,17.33,17.16,VI,Southeast,hopewell,hopewell1,"Hopewell, Charles City County, Virginia",37.3,-77.29,15,April,17,1978,0,15.57,6.13,10.85,11.98,0.04,6.01,22.53,9.39,15.96,21.81,8.69,15.25,0.0337,0.034,0.0337
277,528,CBP_9_JMUH_VIR,2.193968989,0.213340251,Type6,rhomboidea,2.16,0.88,8.67,8.48,VI,Southeast,charoltesville,charoltesville3,"Charlottesville, Orange County, Virginia",38.03,-78.51,149,May,1,1971,0,20.87,2.84,11.86,11.59,-1.49,5.05,19.8,6.78,13.29,19.14,6.8,12.97,0.0238,0.0265,0.0345
278,331,CBP_3_HAR_UTAH,2.382523437,0.213181729,Type3,rhomboidea,2.23,0.98,9.05,8.94,UT,Southwest,northlogan,northlogan2,"North Logan, Cache County, Utah",41.75,-111.78,1459.2,April,18,1998,0.081,9.15,-4.38,2.38,4.58,-5.27,-0.34,14.16,1.71,7.93,13.94,1.51,7.73,0.0286,0.0233,0.0237
279,356,CBP_3_VSC_VIR,4.254277736,0.213004165,Type1a2,rhomboidea,6.29,1.43,17.43,17.29,VI,Southeast,,,,#N/A,#N/A,#N/A,,#N/A,#N/A,#N/A,#N/A,#N/A,#N/A,#N/A,#N/A,#N/A,#N/A,#N/A,#N/A,#N/A,#N/A,#N/A,#N/A,#N/A,#N/A
280,25,CBP_1_CSCN_IDA,3.690963815,0.212517976,Type3,rhomboidea,3.51,0.87,9.07,8.98,ID,Northwest,caldwell,caldwell,Canyon County_Idaho_Caldwell,43.68,-116.68,723,April ,2,1959,0,19.83,8.13,13.98,8.8,-2.52,3.14,18.68,3.79,11.23,17.73,2.52,10.12,0.0084,0.0075,0.0073
281,311,CBP_3_ACU_Tex,2.431434885,0.210718289,Type3,rhomboidea,5.73,2.71,22.55,21.93,TX,South,Abilene,Abilene4,"Abilene, Texas",32.45,-99.73,524,December,22,2001,0.069,28.5,9.27,18.88,18.23,3.16,10.69,25.4,10.73,18.07,25.08,11.83,18.45,0.0124,0.0171,0.0233
282,227,CBP_18_BRIT_Tex,3.002597014,0.209612129,Type3,heteris,3.15,1.12,11.11,10.73,TX,South,Arlington,Arlington5,"Arlington, Texas",32.74,-97.11,183,February ,22,1973,0.195,11.83,4.76,8.24,18.08,6.95,12.52,24.46,12.22,18.34,23.85,12.32,18.08,0.0253,0.0196,0.0311
283,368,CBP_39_WIS_WIS,3.217085616,0.20846956,Type3,rhomboidea,5.75,1.7,17.95,17.2,WI,Upper_Midwest,beloit,beloit,"Beloit, Rock County, Wisconsin",42.51,-89.03,273,May,7,1932,0.63,23,13.56,18.28,5.99,-3.9,1.05,5.99,-3.9,1.05,5.99,-3.9,1.05,0.0154,0.0154,0.0154
284,393,CBP_4_MOR_ILL,3.455942552,0.208015166,Type3,rhomboidea,8.45,2.6,28.25,27.65,IL,Ohio_Valley,chicago,chicago1,"Chicago, Cook County, Illinois",41.74,-87.55,182,June,2,1967,0,22.3,8.7,15.5,9.04,-0.83,4.11,15.39,5.08,10.24,14.57,4.84,9.7,0.0216,0.0231,0.0275
285,469,CBP_6_ODU_VIR,2.883491145,0.207178229,Type3,rhomboidea,0.89,0.3,3,2.93,VI,Southeast,virginiabeach,virginiabeach1,"Virginia Beach, , Virginia",36.85,-75.98,301,March,22,1978,0,18.96,6.46,12.71,11.62,2.66,7.14,19.99,10.25,15.12,19.51,9.9,14.7,0.0392,0.0314,0.033
286,30,CBP_1_DOV_MARY,2.365333226,0.207144436,Type1a2,rhomboidea,4,1.37,15.6,15.33,MD,Northeast,carney,carney1,Baltimore County_Maryland_Carney and Long Green,39.45,-76.48,108,April,25,1970,3.22,8.075,-20.44,30.15,8.08,-2.04,3.02,17.45,6.28,11.86,18.01,6.91,12.46,0.0322,0.0303,0.0284
287,376,CBP_4_CAL_MICH,3.000140653,0.207059622,Type3,rhomboidea,5.71,1.81,18.83,18.55,MI,Upper_Midwest,Grand Rapids,Grand Rapids4,"Grand Rapids, Kent County, Michigan",42.91,-85.64,813,May,15,1967,0.029,15.55,6.38,10.97,5.62,-4.35,0.64,13.57,2.83,8.2,13.54,2.31,7.93,0.0135,0.0175,0.0265
288,163,CBP_10_ODU_VIR,3.139597553,0.206681618,Type1a2,rhomboidea,1.06,0.29,3.65,3.54,VI,Southeast,virginiabeach,virginiabeach2,"Virginia Beach, Princess Anne, Virginia",36.77,-76.16,301,April,23,1966,0.596,20.3,11.72,16.01,12.25,2.91,7.58,19.62,10.34,14.98,19.11,10.04,14.58,0.0186,0.0215,0.0279
289,160,CBP_10_JMUH_VIR,5.041468886,0.206525762,Type3,rhomboidea,2.59,0.36,7.02,6.95,VI,Southeast,,,"Harrisonburg, Rockingham County, Virginia",38.44,-78.87,301,April,#N/A,1974,#N/A,#N/A,#N/A,#N/A,#N/A,#N/A,#N/A,#N/A,#N/A,#N/A,#N/A,#N/A,#N/A,#N/A,#N/A,#N/A
290,52,CBP_1_GAS_GEOR,3.428983544,0.206510203,Type1a2,rhomboidea,3.53,0.63,9.85,9.65,GA,Southeast,statesboro,statesboro1,"Statesboro, Bulloch County, Georgia",32.67,-81.33,77.1,March,16,1963,0.022,24.3,10.98,17.64,18.97,5.14,12.05,25.67,11.95,18.81,25.27,11.56,18.41,0.025,0.0328,0.0314
291,345,CBP_3_SAT_Tex,4.169061854,0.204074941,Type3,heteris,3.12,1.04,10.58,10.1,TX,South,Mason,Mason,"Mason, Texas",30.75,-99.23,468,March ,19,1994,0,30,11.1,20.55,19.14,4.32,11.73,25.68,10.62,18.15,26.13,11.31,18.72,0.0129,0.0162,0.0215
292,297,CBP_2_VSC_GEOR,2.945612531,0.202670027,Type1a1,rhomboidea,4.66,1.37,15.46,15.2,GA,Southeast,cochran,cochran2,"Cochran, Bleckley County, Georgia",32.71,-83.72,104,March,7,2010,0,16.67,-2.07,7.3,16.37,4.06,10.21,23.47,11.22,17.34,24.97,11.08,18.02,0.0546,0.0508,0.0334
293,268,CBP_2_IND_INDI,3.027683811,0.202391054,Type3,rhomboidea,3.04,0.82,10.18,10.02,IN,Ohio_Valley,evansville,evansville,"Evansville, Vanderburgh County, Indiana",37.98,-87.55,118,April,12,1941,0,29.58,12.23,20.9,9.7,-0.01,4.84,19.27,7.58,13.43,21.28,9.49,15.39,0.0198,0.0204,0.0243
294,473,CBP_6_URV_VIR,2.232435064,0.201601463,Type3,rhomboidea,4.76,1.98,18.22,18,VI,Southeast,,,"Richmond, Henrico County, Virginia",37.54,-77.43,50.7,April,#N/A,1933,#N/A,#N/A,#N/A,#N/A,#N/A,#N/A,#N/A,#N/A,#N/A,#N/A,#N/A,#N/A,#N/A,#N/A,#N/A,#N/A
295,153,CBP_10_BRIT_Tex,3.955015214,0.200367292,Type6,rhomboidea,5.14,1.15,17.14,16.45,TX,South,Dallas,Dallas1,"Dallas, Texas",32.78,-96.81,128,March ,27,1973,0.278,26.03,9.72,17.88,16.26,4.89,10.58,24.7,12.59,18.65,24.29,12.73,18.51,0.0287,0.022,0.0354
296,347,CBP_3_UGA_GEOR,2.70738871,0.200061204,Type3,rhomboidea,5.02,1.75,19.43,19.14,GA,Southeast,cochran,cochran3,"Cochran, Bleckley County, Georgia",32.71,-83.72,104,March,7,2010,0,16.67,-2.07,7.3,16.37,4.06,10.21,23.47,11.22,17.34,24.97,11.08,18.02,0.0546,0.0508,0.0334
297,338,CBP_3_MOR_ILL,4.365526458,0.19931984,Type3,rhomboidea,10.65,2.4,34.25,33.3,IL,Ohio_Valley,naperville,naperville2,"Naperville, Du Page County, Illinois",41.75,-88.19,215,April,24,1970,0.045,19.45,9.3,14.38,7.37,-1.36,3,14.79,4.05,9.42,17.04,5.81,11.43,0.0253,0.0236,0.0288
298,277,CBP_2_NY_DELA,3.296020875,0.197794061,Type3,rhomboidea,5.73,1.44,21.69,21.2,DE,Northeast,dagsboro,dagsboro,"Dagsboro, Sussex County, Delaware",38.52,-75.19,301,April,23,2011,0.439,22.46,8.49,15.47,2.01,2.01,2.01,19.91,9.08,14.49,20.85,9.91,15.38,0.0201,0.0249,0.0307
299,476,CBP_6_VPI_VIR,2.996044315,0.197756016,Type3,rhomboidea,14.25,4.75,51.28,50.8,VI,Southeast,radford,radford3,"Radford, Floyd County, Virginia",37.13,-80.58,641,May ,5,1976,#N/A,#N/A,#N/A,#N/A,#N/A,#N/A,#N/A,#N/A,#N/A,#N/A,#N/A,#N/A,#N/A,#N/A,#N/A,#N/A
300,446,CBP_5_SAT_Tex,3.503428168,0.197138871,Type3,rhomboidea,4.56,1.57,9.72,9.67,TX,South,Waco,Waco5,"Waco, Texas",31.55,-97.15,142,March ,21,1990,0,20.86,5.66,13.26,19.88,6.23,13.06,25.33,12.58,18.96,25.96,13.31,19.63,0.0206,0.0267,0.0276
301,90,CBP_1_MUHW_INDI,2.775792143,0.196523512,Type3,rhomboidea,6.07,2.2,23.61,23.07,IN,Ohio_Valley,southport,southport2,"Southport, Marion County, Indiana",39.66,-86.12,228,April,27,1935,0.365,25.3,13.6,19.45,9.7,-0.33,4.68,19.29,7.3,13.29,17.38,6.35,11.86,0.0158,0.0177,0.0276
302,290,CBP_2_ULA_WIS,2.947261957,0.196271495,Type3,rhomboidea,2.25,0.69,6.91,6.75,WI,Upper_Midwest,madison,madison1,"Madison, Dane County, Wisconsin",43.05,-89.4,239,May,16,1978,0,16.6,8.08,12.34,2.65,-8.99,-3.17,2.65,-8.99,-3.17,2.65,-8.99,-3.17,0.0179,0.0179,0.0179
303,253,CBP_2_FLAS_FLOR,3.562292124,0.195820282,Type3,rhomboidea,4.95,1.16,14.8,14.52,FL,Southeast,gainesville,gainesville1,"Gainesville, Alachua County, Florida",29.65,-82.32,54,January,3,1967,2.173,20.1,14.9,17.5,26.15,14.38,20.26,26.13,14.18,20.15,27.63,14.37,21,0.0338,0.0378,0.0345
304,197,CBP_13_UWFP_FLOR,2.958722014,0.195003736,Type3,heteris,10.07,3.24,41.6,41.12,FL,Southeast,jacksonville,jacksonville,"Jacksonville, Duval County, Florida",30.33,-81.66,5,February,9,2003,1.111,10.39,5.94,8.16,22.25,12.04,17.15,25.42,15.44,20.43,25.46,15.4,20.43,0.0403,0.0369,0.0321
305,17,CBP_1_CAL_MICH,4.402193134,0.194949849,Type1a1,rhomboidea,6.65,1.23,19.9,19.53,MI,Upper_Midwest,Hudsonville,Hudsonville1,"Hudsonville, Ottowa County, Michigan",42.98,-85.89,969,May,7,1954,0.009,9.98,2.22,6.1,6.13,-2.23,1.95,14.05,3.65,8.85,14.49,4.91,9.7,0.0247,0.0237,0.0276
306,103,CBP_1_NLU_MICH,3.333408876,0.194370748,Type3,rhomboidea,4.4,1.2,14.29,13.97,MI,Upper_Midwest,Muskegon,Muskegon,"Muskegon, Muskegon County, Michigan",43.25,-86.33,647,May,8,1976,0.005,13,-2.58,5.21,5.36,-3.9,0.73,14.27,3.97,9.12,12.87,1.86,7.37,0.029,0.0322,0.0197
307,35,CBP_1_ESTU_VIR,2.048631603,0.192693473,Type6,rhomboidea,4.4,1.93,17.64,17.31,VI,Southeast,,,"Waynesboro, Scott County, Virginia",38.07,-78.89,392,Summer,#N/A,1958,#N/A,#N/A,#N/A,#N/A,#N/A,#N/A,#N/A,#N/A,#N/A,#N/A,#N/A,#N/A,#N/A,#N/A,#N/A,#N/A
308,443,CBP_5_ODU_VIR,3.179534884,0.192540837,Type3,rhomboidea,2.25,0.7,6.9,6.75,VI,Southeast,norfolk,norfolk7,"Norfolk City, , Virginia",36.88,-76.31,301,March,25,2004,0,21.11,7,14.05,14.09,3.76,8.93,19.93,9.74,14.83,20.9,11.21,16.05,0.0257,0.039,0.0367
309,157,CBP_10_DOV_DELA,2.221157943,0.192159678,Type3,rhomboidea,6.38,2.84,24.13,24,DE,Northeast,dover,dover3,"Dover, Kent County, Delaware",39.22,-75.63,301,October,23,1984,0.36,25.18,16.57,20.88,3.09,3.09,3.09,17.58,6.23,11.9,18.09,6.65,12.37,0.0309,0.0356,0.0299
310,309,CBP_28_WIS_WIS,6.155385522,0.191359494,Type3,rhomboidea,9.3,1.05,20.75,21.05,WI,Upper_Midwest,tworivers,tworivers,"Two Rivers. Manitowoc County, Wisconsin",44.22,-87.61,969,September,27,1964,0.006,16.83,4.6,10.71,3.35,-7.82,-2.24,3.35,-7.82,-2.24,3.35,-7.82,-2.24,0.0128,0.0128,0.0128
311,333,CBP_3_HUNT_INDI,3.416616534,0.190290224,Type3,rhomboidea,10.1,2.2,31.02,30.78,IN,Ohio_Valley,allencounty,allencounty,"Allen County, Indiana",41.09,-85.14,277,May,3,1942,1.139,25.16,13.8,19.48,7.53,-2.52,2.51,17.42,5.21,11.31,15.89,4.39,10.14,0.0219,0.0237,0.0284
312,159,CBP_10_IND_INDI,2.144140794,0.188334692,Type3,rhomboidea,4.92,2.17,17.29,17.1,IN,Ohio_Valley,,,Indiana,#N/A,#N/A,#N/A,,#N/A,#N/A,#N/A,#N/A,#N/A,#N/A,#N/A,#N/A,#N/A,#N/A,#N/A,#N/A,#N/A,#N/A,#N/A,#N/A,#N/A,#N/A
313,216,CBP_16_MICH_MICH,3.318058053,0.186531725,Type3,rhomboidea,4.21,1.14,14.73,14.63,MI,Upper_Midwest,Tawas City,Tawas City,"Tawas City, Iosco County, Michigan",44.42,-83.33,2358,May,12,1992,0,26.1,13.05,19.58,4.35,-4.9,-0.28,14.29,3.23,8.76,12.25,1.96,7.11,0.0174,0.0227,0.0234
314,343,CBP_3_ODU_VIR,3.241142666,0.186033886,Type3,rhomboidea,2.96,0.88,8.73,8.65,VI,Southeast,norfolk,norfolk5,"Norfolk City, , Virginia",36.93,-76.24,301,April,4,1970,0,19.74,5.62,12.68,10.35,0.86,5.6,19.12,9.73,14.42,19.59,9.99,14.79,0.0298,0.0339,0.0266
315,282,CBP_2_ODU_VIR,3.922968357,0.18575237,Type3,rhomboidea,3.65,0.63,11.43,11.22,VI,Southeast,norfolk,norfolk4,"Norfolk City, , Virginia",36.93,-76.24,301,April,4,1970,0,19.74,5.62,12.68,10.35,0.86,5.6,19.12,9.73,14.42,19.59,9.99,14.79,0.0298,0.0339,0.0266
316,289,CBP_2_UGA_GEOR,3.0465836,0.185338073,Type3,rhomboidea,7.23,2.65,26.48,26.25,GA,Southeast,macon,macon,"Macon, Bibb County, Georgia",32.84,-83.63,116,October,1,1979,0.038,28.76,17,22.88,30.41,18.22,24.31,24.18,10.62,17.4,23.97,10.57,17.27,0.0341,0.0352,0.0365
317,298,CBP_2_VSC_VIR,3.869819546,0.185054531,Type3,rhomboidea,3.21,0.77,9.77,9.65,VI,Southeast,richmond,richmond11,"Richmond, Hanover County, Virginia",37.54,-77.43,50.7,April,16,1978,0,17.13,2.32,9.73,15.45,3.19,9.32,20.99,9.31,15.15,20.88,7.82,14.35,0.0245,0.0374,0.0276
318,500,CBP_7_WIS_WIS,4.056935758,0.184783689,Type3,rhomboidea,6.15,1.45,17.2,16.7,WI,Upper_Midwest,cornell,cornell,"Cornell, Chippewa County, Wisconsin",45.16,-90.98,969,July,25,1958,1.296,27.4,13.03,20.21,13.17,-0.04,6.57,13.17,-0.04,6.57,13.17,-0.04,6.57,0.0251,0.0251,0.0251
319,73,CBP_1_IND_INDI,2.928684492,0.184690249,Type3,rhomboidea,5.65,1.49,19.06,18.82,IN,Ohio_Valley,wellscounty,wellscounty,"Wells County, Indiana",40.73,-85.22,285,May,13,1900,#N/A,#N/A,#N/A,#N/A,7.46,-3.4,2.03,16.95,4.76,10.86,17.35,5.31,11.33,0.0208,0.0222,0.0263
320,390,CBP_4_JMUH_VIR,3.679639335,0.183339482,Type3,rhomboidea,6.79,2.1,21.02,20.77,VI,Southeast,harrisonburg,harrisonburg6,"Harrisonburg, Rockingham County, Virginia",38.43,-78.87,301,April,20,1976,0,30.43,11,20.71,11.45,-1.91,4.77,18.16,5.24,11.7,17.13,3.59,10.36,0.0168,0.0291,0.0279
321,144,CBP_1_UWFP_FLOR,1.984860072,0.182234258,Type3,rhomboidea,5.59,2.68,26.78,26.46,FL,Southeast,pensacola,pensacola1,"Pensacola, Escambia County, Florida",30.43,-87.24,31,January,30,1975,0.026,23.32,17.22,20.27,24.58,12.92,18.75,25.97,14.33,20.15,25.58,14.69,20.13,0.0353,0.034,0.0622
322,410,CBP_40_WIS_WIS,2.492943429,0.181958192,Type3,rhomboidea,5.75,2.45,22.4,21.75,WI,Upper_Midwest,dodgeville,dodgeville2,"Dodgeville, Iowa County, Wisconsin",42.96,-90.13,364,May,13,1958,0,27.32,3.22,15.27,5.39,-6.18,-0.4,5.39,-6.18,-0.4,5.39,-6.18,-0.4,0.0083,0.0083,0.0083
323,167,CBP_10_UWFP_FLOR,3.596269717,0.181143592,Type1a2,rhomboidea,8.66,2.07,27.02,26.76,FL,Southeast,pensacola,pensacola10,"Pensacola, Escambia County, Florida",30.43,-87.24,31,January,29,1989,0,22.66,6.66,14.66,19.2,7.27,13.23,24.03,12.31,18.17,24.8,13.85,19.33,0.0427,0.0452,0.0377
324,50,CBP_1_GA_FLOR,3.002600571,0.18089177,Type1a2,rhomboidea,6.7,1.35,22.73,22.4,FL,Southeast,tallahassee,tallahassee2,"Tallahassee, Leon County, Florida",30.46,-84.25,61,March,14,1957,0.036,26.04,15.24,20.64,22.76,10.11,16.43,26.72,14.12,20.42,26.5,14.67,20.59,0.0138,0.028,0.0446
325,307,CBP_26_WIS_WIS,3.288763198,0.18087433,Type3,rhomboidea,4.1,1,12.8,12.35,WI,Upper_Midwest,,," Sturgeon Bay, Door County, Wisconsin",44.83,-87.38,183,June,#N/A,1949,#N/A,#N/A,#N/A,#N/A,#N/A,#N/A,#N/A,#N/A,#N/A,#N/A,#N/A,#N/A,#N/A,#N/A,#N/A,#N/A
326,40,CBP_1_FLAS_MARY,2.437590988,0.18083668,Type3,rhomboidea,4.82,1.84,16.55,17.45,MD,Northeast,carney,carney2,Baltimore County_Maryland_Carney and Long Green,39.45,-76.48,108,April,25,1970,3.22,8.075,-20.44,30.15,8.08,-2.04,3.02,17.45,6.28,11.86,18.01,6.91,12.46,0.0322,0.0303,0.0284
327,142,CBP_1_USMS_OHIO,4.650686584,0.180532228,Type6,rhomboidea,5.33,1.22,13.83,12.44,OH,Ohio_Valley,columbus,columbus,"Columbus, Franklin County, Ohio",40.01,-83.04,222,May,5,2005,0.004,17.54,0.67,9.11,8.12,-1.94,3.09,17.05,6.17,11.61,17.2,5.91,11.56,0.0346,0.0356,0.03
328,531,CBP_9_ODU_VIR,2.642949333,0.180209232,Type3,rhomboidea,1.32,0.23,4.52,4.44,VI,Southeast,norfolk,norfolk8,"Norfolk, Norfolk County, Virginia",36.89,-76.32,301,April,1,1966,0.009,23.23,2.42,12.82,11.62,2,6.81,19.72,10.13,14.92,19.19,9.82,14.5,0.0192,0.0217,0.028
329,296,CBP_2_VPI_VIR,3.454180539,0.179197668,Type3,rhomboidea,2.56,0.61,7.02,6.95,VI,Southeast,williamsburg,williamsburg,"Williamsburg City, , Virginia",37.27,-76.72,26,November,18,1999,0,15.15,-3.04,6.06,26.57,14.71,20.64,21.47,8.85,15.16,21.43,8.9,15.17,0.0543,0.0418,0.0395
330,535,CBP_9_WIS_WIS,3.478345597,0.178183754,Type3,rhomboidea,3.7,1,12.15,11.7,WI,Upper_Midwest,boscobel,boscobel,"Boscobel, Crawford County, Wisconsin",43.21,-90.81,969,May,26,1975,0.304,24.54,15.12,19.83,5.44,-5.01,0.22,5.44,-5.01,0.22,5.44,-5.01,0.22,0.0189,0.0189,0.0189
331,68,CBP_1_HAR_WAS,3.236790654,0.177174657,Type3,rhomboidea,10.17,3.28,47.11,46,WA,Northwest,,,Washington,#N/A,#N/A,#N/A,,#N/A,#N/A,#N/A,#N/A,#N/A,#N/A,#N/A,#N/A,#N/A,#N/A,#N/A,#N/A,#N/A,#N/A,#N/A,#N/A,#N/A,#N/A
332,522,CBP_9_CSCN_IDA,2.634578341,0.177096734,Type6,rhomboidea,10.1,2.17,27.49,27.44,NE,Northern_Rockies_and_Plains,chadron,chadron5,Dawes County_Nebraska_Chadron,42.83,-103,1030,June,9,1970,1.913,28.53,11.67,20.1,10.79,-4.38,3.21,16.16,0.62,8.39,16.33,0.22,8.28,0.0144,0.012,0.0104
333,69,CBP_1_HARV_DELA,2.805570733,0.176923689,Type3,rhomboidea,4.89,1.65,17.65,17.59,DE,Northeast,,,"Wilmington, New Castle County, Delaware",39.73,-75.67,301,May,10,1933,#N/A,#N/A,#N/A,#N/A,#N/A,#N/A,#N/A,#N/A,#N/A,#N/A,#N/A,#N/A,#N/A,#N/A,#N/A,#N/A
334,498,CBP_7_UWFP_FLOR,3.427716183,0.176250268,Type3,rhomboidea,5.12,1.54,16.73,16.44,FL,Southeast,pensacola,pensacola7,"Pensacola, Escambia County, Florida",30.43,-87.24,31,February,28,1999,0.643,22.03,11.5,16.77,21.75,9.92,15.84,25.02,13.7,19.36,26.72,14.33,20.52,0.0494,0.0588,0.0397
335,491,CBP_7_MARY_MARY,3.772684239,0.175990776,Type3,rhomboidea,4.91,1.32,12.45,12.3,MD,Northeast,baltimorecounty,baltimorecounty,Baltimore County_Maryland,39.3,-76.61,293,April,20,1974,1.932,10.297,-14.69,44.14,11.2,0.33,5.76,19.12,7.98,13.55,17.83,6.18,12,0.0278,0.0295,0.0245
336,417,CBP_47_WIS_WIS,4.322913616,0.175574667,Type3,rhomboidea,7.7,1.5,22.45,22.1,WI,Upper_Midwest,spirit,spirit,"Spirit, Price County, Wisconsin",45.4,-90.16,502,June,6,1947,0.025,23.2,9.58,16.39,22.59,9.68,16.13,22.59,9.68,16.13,22.59,9.68,16.13,0.0275,0.0275,0.0275
337,139,CBP_1_USF_ALA,2.955906125,0.175266646,Type3,rhomboidea,3.69,1.19,11.27,11.19,AL,Southeast,tuscaloosa,tuscaloosa2,"Tuscaloosa, Tuscaloosa County, Alabama",33.19,-87.57,68,March,26,1955,0.217,25.32,-4.22,10.55,18.23,4.55,11.39,25.59,11.27,18.43,24.39,10.77,17.58,0.0361,0.0281,0.0316
338,434,CBP_5_HAR_VIR,3.782570249,0.173974886,Type6,rhomboidea,6.74,1.74,19.58,19.16,VI,Southeast,,,,#N/A,#N/A,#N/A,,#N/A,#N/A,#N/A,#N/A,#N/A,#N/A,#N/A,#N/A,#N/A,#N/A,#N/A,#N/A,#N/A,#N/A,#N/A,#N/A,#N/A,#N/A
339,283,CBP_2_PH_DELA,2.809134739,0.172497269,Type3,rhomboidea,5.28,1.8,20.26,19.98,DE,Northeast,elsmere,elsmere,"Elsmere, New Castle County, Delaware",39.82,-75.62,301,June,24,1868,#N/A,#N/A,#N/A,#N/A,#N/A,#N/A,#N/A,#N/A,#N/A,#N/A,#N/A,#N/A,#N/A,#N/A,#N/A,#N/A
340,7,CBP_1_ARIZ_ARIZ,3.038636609,0.172153961,Type3,rhomboidea,2.89,0.7,10.96,10.5,AZ,Southwest,tucson,tucson2,Santa Cruz County_Arizona_Tuscon,31.7,-110.85,2524,April,4,2018,0,26.99,7.94,17.47,20.9,4.86,12.88,26.94,10.56,18.75,25.94,9.84,17.89,0.0591,0.0789,0.1252
341,39,CBP_1_FLAS_INDI,2.146087863,0.171686977,Type3,rhomboidea,5.36,2,21.82,21.62,IN,Ohio_Valley,richmond,richmond,"Richmond, Wayne County, Indiana",39.83,-84.89,299,April,20,1973,0.432,22.73,13.74,18.23,7.1,-1.87,2.62,16.51,5.54,11.02,17.46,5.92,11.69,0.0344,0.031,0.0305
342,524,CBP_9_DOV_DELA,3.182305471,0.171580279,Type3,rhomboidea,3.13,0.93,10.38,10.16,DE,Northeast,delawarecity,delawarecity,"Delaware City, New Castle County, Delaware",39.56,-75.65,301,April,29,1967,0,17.62,4.04,10.83,2.36,2.36,2.36,18.23,6.61,12.42,17.37,6.29,11.83,0.0236,0.0261,0.0328
343,453,CBP_5_VPI_VIR,3.63543036,0.17125941,Type3,rhomboidea,6.69,1.5,18.33,18.17,VI,Southeast,radford,radford2,"Radford, Montgomery County, Virginia",37.13,-80.58,641,May,17,1978,0,17.6,3.62,10.61,8.59,-3.86,2.36,15.8,3.18,9.49,16.81,3.17,9.99,0.0332,0.0349,0.0286
344,147,CBP_1_VSC_GEOR,3.622742444,0.170511732,Type3,rhomboidea,6.43,1.8,20.34,20.11,GA,Southeast,darien,darien3,"Darien, McIntosh County, Georgia",31.38,-81.44,9.1,March,24,1958,0.998,16.77,9.86,13.31,18.13,6.62,12.37,24.06,13.28,18.67,24.27,13.1,18.69,0.029,0.045,0.0308
345,169,CBP_11_BALT_MARY,2.968094648,0.170489928,Type3,rhomboidea,4.7,1.61,16.18,15.91,MD,Northeast,silverspring,silverspring2,Montgomery County_Maryland_Silver Spring,39.01,-77.03,104,May,6,1977,2.946,14.983,28.51,8.917,10.98,-1.31,4.83,18.16,5.94,12.05,18.12,6.45,12.28,0.018,0.0267,0.03
346,320,CBP_3_DOV_DELA,3.132967402,0.170237532,Type3,rhomboidea,5,1.64,18.91,18.64,DE,Northeast,wilmington,wilmington1,"Wilmington, New Castle County, Delaware",39.73,-75.67,301,May,10,1933,1.106,24.66,10.34,17.5,4.07,4.07,4.07,18.37,6.88,12.63,18.08,7.04,12.56,0.0407,0.0384,0.0374
347,80,CBP_1_LSU_GEOR,1.602655863,0.169804111,Type3,rhomboidea,2.33,1.5,9.75,9.55,GA,Southeast,,,"Statesboro, Bulloch County, Georgia",32.67,-81.33,77.1,March,23,#N/A,#N/A,#N/A,#N/A,#N/A,#N/A,#N/A,#N/A,#N/A,#N/A,#N/A,#N/A,#N/A,#N/A,#N/A,#N/A,#N/A
348,230,CBP_19_BRIT_Tex,2.452167064,0.169631024,Type3,rhomboidea,3.3,0.82,9.85,9.4,TX,South,Franklin,Franklin1,"Franklin, Texas",31.03,-96.49,137,February,20,1982,0,24.23,8.13,16.18,21.68,8.76,15.22,25.69,13.29,19.49,25.74,13.12,19.43,0.0249,0.027,0.0226
349,325,CBP_3_FMNH_ILL,3.472187475,0.169239151,Type3,rhomboidea,5.8,0.96,20.39,20.02,IL,Ohio_Valley,naperville,naperville1,"Naperville, Will County, Illinois",41.75,-88.19,215,May,2,1998,0,20.77,5.53,13.15,4.09,-5.57,-0.74,14.76,3.41,9.09,15.82,4.45,10.14,0.015,0.0251,0.0291
350,364,CBP_35_WIS_WIS,2.033935717,0.168898743,Type3,rhomboidea,5,2.5,23.9,23.25,WI,Upper_Midwest,sturgeonbay,sturgeonbay,"Sturgeon Bay, Door County, Wisconsin",44.83,-87.38,178,October,44595,1959,0.148,15.15,7.63,11.39,21.62,10.16,15.89,21.62,10.16,15.89,21.62,10.16,15.89,0.029,0.029,0.029
351,499,CBP_7_VPI_VIR,3.256938698,0.167821132,Type3,rhomboidea,6.05,1.27,22.8,22.43,VI,Southeast,hopewell,hopewell2,"Hopewell, Fanquier County, Virginia",37.3,-77.29,15,May,9,#N/A,0.05,31.27,17.93,24.6,15.59,2.64,9.11,21.04,8.84,14.94,20.78,7.97,14.37,0.0178,0.026,0.02
352,19,CBP_1_CHAS_ILL,2.926350699,0.167737106,Type3,rhomboidea,2.22,0.68,8.22,8.15,IL,Ohio_Valley,,,Illinois,#N/A,#N/A,#N/A,,#N/A,#N/A,#N/A,#N/A,#N/A,#N/A,#N/A,#N/A,#N/A,#N/A,#N/A,#N/A,#N/A,#N/A,#N/A,#N/A,#N/A,#N/A
353,375,CBP_4_BRY_UTAH,2.867186601,0.167455101,Type3,rhomboidea,9.15,2.33,34.85,34.5,UT,Southwest,provo,provo1,"Provo, Utah County, Utah",40.24,-111.7,969,June,13,1967,1.19,15.26,5.77,10.51,10.96,-2.91,4.03,16.25,0.69,8.47,16.23,0.64,8.43,0.0189,0.0147,0.0143
354,165,CBP_10_SAT_Tex,2.723189326,0.166314499,Type3,rhomboidea,4.68,1.27,19.47,18.73,TX,South,Bryan,Bryan1,"Bryan, Texas",30.67,-96.37,113,March ,8,1977,0,21.68,5.58,13.63,16.71,4.32,10.52,23.8,11.75,17.77,26.34,13.82,20.08,0.0301,0.0321,0.0203
355,300,CBP_2_WM_VIR,2.740014033,0.166020708,Type3,rhomboidea,3.57,1.26,13.05,12.9,VI,Southeast,harrisonburg,harrisonburg1,"Harrisonburg, Page County, Virginia",38.45,-78.87,404,April,12,2002,0,18.2,2.12,10.16,11.61,-1.57,5.02,18.22,5.11,11.67,17.7,5.54,11.62,0.0133,0.0201,0.0261
356,342,CBP_3_OCU_OKLA,2.991714093,0.16598569,Type3,rhomboidea,4.69,1.38,16.27,16.07,OK,South,oklahomacity,oklahomacity4,"Oklahoma CIty, Oklahoma County, Oklahoma",35.48,-97.51,365,April,1,2001,0,18.33,1.4,9.86,9.56,-1.3,4.13,20.79,8.75,14.77,22.09,9.95,16.02,0.0158,0.0261,0.0205
357,465,CBP_6_IND_INDI,2.407342392,0.165291007,Type3,rhomboidea,5.57,2.11,21.59,21.3,IN,Ohio_Valley,decatur,decatur2,"Decatur, Adams County, Indiana",40.83,-84.93,244,April,30,1905,0,29.58,12.23,20.9,6.29,-5.23,0.53,15.77,3.08,9.42,14.85,3.23,9.04,0.0186,0.0218,0.0278
358,119,CBP_1_SDNHM_OHIO,2.51257419,0.165260153,Type3,rhomboidea,4.82,1.62,20.14,20.04,OH,Ohio_Valley,,,Ohio,#N/A,#N/A,#N/A,,#N/A,#N/A,#N/A,#N/A,#N/A,#N/A,#N/A,#N/A,#N/A,#N/A,#N/A,#N/A,#N/A,#N/A,#N/A,#N/A,#N/A,#N/A
359,123,CBP_1_TENN_GEOR,2.994610183,0.164330798,Type3,rhomboidea,6,2.14,25.76,25.36,GA,Southeast,athens,athens2,"Athens, Clarke County, Georgia",33.95,-83.38,194,April,3,1929,0,22.77,10,16.38,15.92,2.87,9.4,23.21,10.35,16.78,22.79,10.63,16.71,0.0608,0.057,0.0531
360,146,CBP_1_VPI_VIR,2.464631134,0.163013042,Type3,rhomboidea,4.39,1.56,17.61,17.15,VI,Southeast,radford,radford1,"Radford, Montgomery County, Virginia",37.13,-80.58,641,March,27,1981,0.019,15.85,0.57,8.21,9.95,-3.29,3.33,17.72,3.92,10.82,17.04,3.55,10.3,0.0167,0.0239,0.0235
361,451,CBP_5_UWFP_FLOR,2.817367176,0.161116331,Type3,rhomboidea,4.12,1.24,15.9,15.44,FL,Southeast,pensacola,pensacola5,"Pensacola, Escambia County, Florida",30.43,-87.24,31,March,23,2011,0.002,27.36,19.94,23.65,23.5,13.3,18.4,26.71,15.95,21.33,26.03,13.99,20.01,0.0552,0.0466,0.0368
362,148,CBP_1_VSC_VIR,3.212401153,0.160993546,Type3,rhomboidea,4.26,1.29,15.17,14.69,VI,Southeast,suffolkcity,suffolkcity1,"Suffolk City, Virginia",36.73,-76.58,31,April,1,1979,0,26.11,12.29,19.2,12.33,2.18,7.26,20.2,10.05,15.13,20.05,9.99,15.02,0.0378,0.0344,0.0433
363,16,CBP_1_BWDR_VIR,1.98952923,0.159723562,Type3,rhomboidea,3.84,1.91,16.8,16.52,VI,Southeast,harrisonburg,harrisonburg2,"Harrisonburg, Rockham County, Virginia",38.45,-78.87,404,April,2,1962,0,9.05,-6.1,1.48,11,-0.94,5.03,17.64,4.96,11.3,16.94,4.08,10.51,0.028,0.0295,0.0324
364,267,CBP_2_HUNT_INDI,2.930765957,0.156771552,Type3,rhomboidea,4.96,1.63,15.65,15.29,IN,Ohio_Valley,huntington,huntington1," Huntington, Huntington County, Indiana",40.88,-85.5,228,May,8,1937,0,23.32,7.97,15.64,7.41,-2.75,2.33,17.05,5.03,11.04,15.41,4.11,9.76,0.0298,0.0268,0.0283
365,406,CBP_4_VPI_VIR,3.876074656,0.156674278,Type3,rhomboidea,4.59,1.05,13.61,13.44,VI,Southeast,fredericksburg,fredericksburg1,"Fredericksburg, Norfolk County, Virginia",38.31,-77.47,41,April,9,1969,0,27.17,6.73,16.95,10.35,-1.32,4.52,19.5,6.59,13.05,19.27,6.89,13.08,0.0233,0.0251,0.0288
366,126,CBP_1_UAM_OHIO,2.882563141,0.156311847,Type3,rhomboidea,3,1,11.56,11.22,OH,Ohio_Valley,coshocton,coshocton,"Coshocton, Coshocton County, Ohio",40.36,-81.79,301,April,8,1942,1.168,16.68,-0.08,8.3,7.88,-2.21,2.84,18.11,5.54,11.83,17.02,5.02,11.02,0.0198,0.0269,0.0259
367,259,CBP_2_GVSC_MICH,3.61496707,0.156113271,Type3,rhomboidea,6.78,1.67,23.35,23.11,MI,Upper_Midwest,Kalamazoo,Kalamazoo,"Kalamazoo, Kalamazoo County, Michigan",42.31,-85.54,320,April,8,1973,0,13.22,1.23,7.23,4.79,-3.4,0.69,12.53,1.25,6.89,15.21,4.41,9.81,0.0227,0.0217,0.027
368,136,CBP_1_UNM_OKLA,2.916384857,0.156086077,Type3,rhomboidea,4.45,1.05,17.2,16.3,OK,South,bristow,bristow,"Bristow, Creek County, Oklahoma",35.83,-96.39,247,April,3,1933,0,21,5.83,13.41,14.12,0.93,7.52,23.06,9.6,16.33,23.95,10.78,17.37,0.0195,0.022,0.0264
369,482,CBP_7_BRY_UTAH,2.775825359,0.154793835,Type3,rhomboidea,7.48,2.65,25.6,25.38,UT,Southwest,springville,springville2,"Springville, Utah County, Utah",40.17,-111.61,1394,May,22,1932,0.548,16.2,1.2,8.7,8.17,-5.68,1.25,16.72,0.61,8.67,16.03,0.02,8.03,0.0161,0.0123,0.0123
370,131,CBP_1_UGA_IDA,2.401136993,0.154419259,Type4,heteris,5.29,1.9,24.15,23.68,ID,Northwest,pocatello,pocatello,Bannock County_Idaho_Pocatello,42.87,-112.43,1360,September,25,1952,0,30.64,3.66,17.15,25.55,6.43,15.99,14.68,-0.62,7.03,15.37,-0.86,7.25,0.0054,0.0064,0.0058
371,57,CBP_1_HAR_ARIZ,2.77865051,0.154188959,Type3,rhomboidea,4.52,1.51,17.42,17.49,AZ,Southwest,tempe,tempe1,Maricopa County_Arizona_Tempe,33.4,-111.9,347.27,February,9,1932,1.584,18.52,9.68,14.1,23.92,7.37,15.65,29.23,11.98,20.61,29.33,11.12,20.23,0.0931,0.0907,0.0571
